"country","state","name","latitude","longitude","population"
"Poland","dolnośląskie","Bolesławiec",51.2658553,15.5657397,
"Poland","dolnośląskie","Gromadka",51.4262858,15.741658,
"Poland","dolnośląskie","Nowogrodziec",51.1973679,15.3983422,
"Poland","dolnośląskie","Osiecznica",51.4017634,15.4476093,
"Poland","dolnośląskie","Warta Bolesławiecka",51.2272195,15.7045412,
"Poland","dolnośląskie","Jawor",51.0545282,16.1863231,
"Poland","dolnośląskie","Bolków",50.9245,16.10378,
"Poland","dolnośląskie","Męcinka",51.0602826,16.0571726,
"Poland","dolnośląskie","Mściwojów",51.063526,16.2612427,
"Poland","dolnośląskie","Paszowice",51.004561,16.1484471,
"Poland","dolnośląskie","Wądroże Wielkie",51.1153775,16.3309425,
"Poland","dolnośląskie","Karpacz",50.7758815,15.7555976,
"Poland","dolnośląskie","Kowary",50.79171,15.83665,
"Poland","dolnośląskie","Piechowice",50.84956,15.59851,
"Poland","dolnośląskie","Szklarska Poręba",50.8274316,15.5261478,
"Poland","dolnośląskie","Janowice Wielkie",50.8793552,15.9233934,
"Poland","dolnośląskie","Jeżów Sudecki",50.9361124,15.74164,
"Poland","dolnośląskie","Mysłakowice",50.8410986,15.7777601,
"Poland","dolnośląskie","Podgórzyn",50.8274053,15.6847425,
"Poland","dolnośląskie","Stara Kamienica",50.9098774,15.5997342,
"Poland","dolnośląskie","Kamienna Góra",50.7852076,16.0237177,
"Poland","dolnośląskie","Lubawka",50.7033992,15.9996227,
"Poland","dolnośląskie","Marciszów",50.8414118,16.0347107,
"Poland","dolnośląskie","Lubań",51.1179142,15.2893895,
"Poland","dolnośląskie","Świeradów-Zdrój",50.9087219,15.3431045,
"Poland","dolnośląskie","Leśna",51.0241928,15.2640454,
"Poland","dolnośląskie","Olszyna",51.06681,15.37221,
"Poland","dolnośląskie","Platerówka",51.0624451,15.1802924,
"Poland","dolnośląskie","Siekierczyn",51.1259587,15.1849486,
"Poland","dolnośląskie","Gryfów Śląski",51.0350353,15.4122128,
"Poland","dolnośląskie","Lubomierz",51.0126464,15.510661,
"Poland","dolnośląskie","Lwówek Śląski",51.1095792,15.5905136,
"Poland","dolnośląskie","Mirsk",50.9704636,15.3858774,
"Poland","dolnośląskie","Wleń",51.0176058,15.677587,
"Poland","dolnośląskie","Zawidów",51.02545,15.06215,
"Poland","dolnośląskie","Zgorzelec",51.1496361,15.0065645,
"Poland","dolnośląskie","Bogatynia",50.9072496,14.9561498,
"Poland","dolnośląskie","Pieńsk",51.2475,15.04176,
"Poland","dolnośląskie","Sulików",51.0758549,15.0710321,
"Poland","dolnośląskie","Węgliniec",51.2879708,15.2299326,
"Poland","dolnośląskie","Wojcieszów",50.95167,15.92209,
"Poland","dolnośląskie","Złotoryja",51.1259316,15.9213852,
"Poland","dolnośląskie","Pielgrzymka",51.1081573,15.790677,
"Poland","dolnośląskie","Świerzawa",51.0140473,15.894809,
"Poland","dolnośląskie","Zagrodno",51.1908496,15.8652698,
"Poland","dolnośląskie","Jelenia Góra",50.9044171,15.7193616,
"Poland","dolnośląskie","Głogów",51.6635852,16.0846672,
"Poland","dolnośląskie","Jerzmanowa",51.5896261,16.0409201,
"Poland","dolnośląskie","Kotla",51.7455408,16.0858092,
"Poland","dolnośląskie","Pęcław",51.6447485,16.2632835,
"Poland","dolnośląskie","Żukowice",51.6657885,15.9597078,
"Poland","dolnośląskie","Góra",51.669945,16.5376529,
"Poland","dolnośląskie","Jemielno",51.5673413,16.5019065,
"Poland","dolnośląskie","Niechlów",51.6642526,16.3542927,
"Poland","dolnośląskie","Wąsosz",51.5623852,16.69165,
"Poland","dolnośląskie","Chojnów",51.2732,15.93648,
"Poland","dolnośląskie","Krotoszyce",51.1394629,16.1038775,
"Poland","dolnośląskie","Kunice",51.2341158,16.2694233,
"Poland","dolnośląskie","Legnickie Pole",51.1627572,16.242452,
"Poland","dolnośląskie","Miłkowice",51.2564211,16.0659081,
"Poland","dolnośląskie","Prochowice",51.27304,16.3653,
"Poland","dolnośląskie","Ruja",51.1731895,16.4120948,
"Poland","dolnośląskie","Lubin",51.397722,16.2095788,
"Poland","dolnośląskie","Rudna",51.5111902,16.263731,
"Poland","dolnośląskie","Ścinawa",51.4159,16.42754,
"Poland","dolnośląskie","Chocianów",51.41724,15.90438,
"Poland","dolnośląskie","Gaworzyce",51.6339028,15.8780218,
"Poland","dolnośląskie","Grębocice",51.5928526,16.2480194,
"Poland","dolnośląskie","Polkowice",51.5024848,16.0620494,
"Poland","dolnośląskie","Przemków",51.5271198,15.7868955,
"Poland","dolnośląskie","Radwanice",51.0489879,17.1112823,
"Poland","dolnośląskie","Legnica",51.2070067,16.1553231,
"Poland","dolnośląskie","Bielawa",50.6907986,16.6229286,
"Poland","dolnośląskie","Dzierżoniów",50.7308605,16.6567892,
"Poland","dolnośląskie","Pieszyce",50.7116152,16.5820423,
"Poland","dolnośląskie","Piława Górna",50.6828036,16.7434759,
"Poland","dolnośląskie","Łagiewniki",50.7907311,16.8446111,
"Poland","dolnośląskie","Niemcza",50.7197493,16.8357165,
"Poland","dolnośląskie","Duszniki",50.404284,16.3904407,
"Poland","dolnośląskie","Kłodzko",50.4345636,16.6613941,
"Poland","dolnośląskie","Kudowa-Zdrój",50.4427156,16.2426605,
"Poland","dolnośląskie","Nowa Ruda",50.5797139,16.5037092,
"Poland","dolnośląskie","Polanica-Zdrój",50.4119089,16.5148115,
"Poland","dolnośląskie","Bystrzyca Kłodzka",50.2990907,16.6417942,
"Poland","dolnośląskie","Lądek-Zdrój",50.3430802,16.8795362,
"Poland","dolnośląskie","Lewin Kłodzki",50.4056168,16.2909777,
"Poland","dolnośląskie","Międzylesie",50.1477491,16.6670843,
"Poland","dolnośląskie","Radków",50.502402,16.4513436,
"Poland","dolnośląskie","Stronie Śląskie",50.2954526,16.8739539,
"Poland","dolnośląskie","Szczytna",50.41339,16.44742,
"Poland","dolnośląskie","Świdnica",50.8498434,16.475679,
"Poland","dolnośląskie","Świebodzice",50.8575475,16.3213376,
"Poland","dolnośląskie","Dobromierz",50.9409844,16.2193465,
"Poland","dolnośląskie","Jaworzyna Śląska",50.9129256,16.432166,
"Poland","dolnośląskie","Marcinowice",50.89093,16.6403575,
"Poland","dolnośląskie","Strzegom",50.9604662,16.3510375,
"Poland","dolnośląskie","Żarów",50.94076,16.49474,
"Poland","dolnośląskie","Boguszów-Gorce",50.7559487,16.2042958,
"Poland","dolnośląskie","Jedlina-Zdrój",50.71966,16.345569,
"Poland","dolnośląskie","Szczawno",50.810462,16.247897,
"Poland","dolnośląskie","Czarny Bór",50.7716843,16.130063,
"Poland","dolnośląskie","Głuszyca",50.68728,16.37107,
"Poland","dolnośląskie","Mieroszów",50.6659,16.18882,
"Poland","dolnośląskie","Stare Bogaczowice",50.847958,16.2017633,
"Poland","dolnośląskie","Walim",50.6974362,16.4422202,
"Poland","dolnośląskie","Wałbrzych",50.7840092,16.2843553,
"Poland","dolnośląskie","Bardo",50.50505,16.74043,
"Poland","dolnośląskie","Ciepłowody",50.667332,16.9236828,
"Poland","dolnośląskie","Kamieniec Ząbkowicki",50.5251922,16.8791589,
"Poland","dolnośląskie","Stoszowice",50.5830254,16.7008823,
"Poland","dolnośląskie","Ząbkowice Śląskie",50.5893617,16.8132419,
"Poland","dolnośląskie","Ziębice",50.5983,17.03888,
"Poland","dolnośląskie","Złoty Stok",50.44459,16.87578,
"Poland","dolnośląskie","Cieszków",51.6143989,17.2825686,
"Poland","dolnośląskie","Krośnice",51.429691,17.3571677,
"Poland","dolnośląskie","Milicz",51.5275957,17.2712122,
"Poland","dolnośląskie","Oleśnica",51.2134346,17.3898504,
"Poland","dolnośląskie","Bierutów",51.12444,17.54603,
"Poland","dolnośląskie","Dobroszyce",51.2949786,17.3189468,
"Poland","dolnośląskie","Dziadowa Kłoda",51.2346734,17.7081306,
"Poland","dolnośląskie","Międzybórz",51.3962482,17.6660338,
"Poland","dolnośląskie","Syców",51.30787,17.72016,
"Poland","dolnośląskie","Twardogóra",51.36499,17.46841,
"Poland","dolnośląskie","Oława",50.9459276,17.2924017,
"Poland","dolnośląskie","Domaniów",50.9011482,17.1482559,
"Poland","dolnośląskie","Jelcz-Laskowice",51.0212945,17.3164789,
"Poland","dolnośląskie","Borów",50.8792458,17.0087408,
"Poland","dolnośląskie","Kondratowice",50.7731346,16.9348765,
"Poland","dolnośląskie","Przeworno",50.6796383,17.1969315,
"Poland","dolnośląskie","Strzelin",50.7812167,17.0646124,
"Poland","dolnośląskie","Wiązów",50.813798,17.2023429,
"Poland","dolnośląskie","Kostomłoty",51.056752,16.6792193,
"Poland","dolnośląskie","Malczyce",51.2204266,16.493598,
"Poland","dolnośląskie","Miękinia",51.1750305,16.75191,
"Poland","dolnośląskie","Środa Śląska",51.1641896,16.5925834,
"Poland","dolnośląskie","Udanin",51.0424529,16.4826214,
"Poland","dolnośląskie","Oborniki Śląskie",51.3009866,16.9148091,
"Poland","dolnośląskie","Prusice",51.3704296,16.9606266,
"Poland","dolnośląskie","Trzebnica",51.3104211,17.0632716,
"Poland","dolnośląskie","Wisznia Mała",51.2315629,17.0241914,
"Poland","dolnośląskie","Zawonia",51.3323339,17.2150504,
"Poland","dolnośląskie","Żmigród",51.46654,16.90582,
"Poland","dolnośląskie","Brzeg Dolny",51.2728265,16.708557,
"Poland","dolnośląskie","Wińsko",51.4547789,16.6076539,
"Poland","dolnośląskie","Wołów",51.3364277,16.6441164,
"Poland","dolnośląskie","Czernica",51.0699744,17.2392645,
"Poland","dolnośląskie","Długołęka",51.1933768,17.2064831,
"Poland","dolnośląskie","Jordanów Śląski",50.8494649,16.8492036,
"Poland","dolnośląskie","Kąty Wrocławskie",51.0309199,16.7675962,
"Poland","dolnośląskie","Kobierzyce",50.9702085,16.9349701,
"Poland","dolnośląskie","Mietków",50.9744926,16.6503844,
"Poland","dolnośląskie","Sobótka",50.89984,16.74452,
"Poland","dolnośląskie","Święta Katarzyna",51.0271829,17.1133479,
"Poland","dolnośląskie","Siechnice",51.03365,17.14733,
"Poland","dolnośląskie","Żórawina",50.9576747,17.0578408,
"Poland","dolnośląskie","Wrocław",51.1078852,17.0385376,690000
"Poland","kujawsko-pomorskie","Białe Błota",53.0895614,17.9025308,
"Poland","kujawsko-pomorskie","Dąbrowa Chełmińska",53.1792145,18.2532968,
"Poland","kujawsko-pomorskie","Dobrcz",53.2764048,18.1315241,
"Poland","kujawsko-pomorskie","Koronowo",53.3155945,17.924967,
"Poland","kujawsko-pomorskie","Nowa Wieś Wielka",52.9784796,18.1159963,
"Poland","kujawsko-pomorskie","Osielsko",53.1841113,18.0984908,
"Poland","kujawsko-pomorskie","Sicienko",53.2063746,17.7940342,
"Poland","kujawsko-pomorskie","Solec Kujawski",53.0832531,18.2258318,
"Poland","kujawsko-pomorskie","Chełmża",53.1844724,18.6045572,
"Poland","kujawsko-pomorskie","Czernikowo",52.9295609,18.9705996,
"Poland","kujawsko-pomorskie","Lubicz",53.0423571,18.7583942,
"Poland","kujawsko-pomorskie","Łubianka",53.1398322,18.5003448,
"Poland","kujawsko-pomorskie","Łysomice",53.0863997,18.6197865,
"Poland","kujawsko-pomorskie","Obrowo",52.9498357,18.8475291,
"Poland","kujawsko-pomorskie","Wielka Nieszawka",52.9961639,18.509675,
"Poland","kujawsko-pomorskie","Zławieś Wielka",53.1194715,18.3490662,
"Poland","kujawsko-pomorskie","Bydgoszcz",53.1234804,18.0084378,360000
"Poland","kujawsko-pomorskie","Toruń",53.0137902,18.5984437,200000
"Poland","kujawsko-pomorskie","Brodnica",53.2599703,19.3956618,
"Poland","kujawsko-pomorskie","Bobrowo",53.2884315,19.2294383,
"Poland","kujawsko-pomorskie","Brzozie",53.3029491,19.6079083,
"Poland","kujawsko-pomorskie","Górzno",53.1980031,19.644406,
"Poland","kujawsko-pomorskie","Bartniczka",53.2485394,19.5324547,
"Poland","kujawsko-pomorskie","Jabłonowo Pomorskie",53.39009,19.1548,
"Poland","kujawsko-pomorskie","Osiek",52.9260444,18.8074332,
"Poland","kujawsko-pomorskie","Świedziebnia",53.1458064,19.5439482,
"Poland","kujawsko-pomorskie","Zbiczno",53.3578427,19.3501102,
"Poland","kujawsko-pomorskie","Chełmno",53.34842,18.42499,
"Poland","kujawsko-pomorskie","Kijewo Królewskie",53.2724884,18.4379758,
"Poland","kujawsko-pomorskie","Lisewo",53.2954476,18.6875465,
"Poland","kujawsko-pomorskie","Papowo Biskupie",53.2526054,18.5619444,
"Poland","kujawsko-pomorskie","Stolno",53.3228058,18.5420729,
"Poland","kujawsko-pomorskie","Unisław",53.2103474,18.3905262,
"Poland","kujawsko-pomorskie","Golub-Dobrzyń",53.110535,19.0539107,
"Poland","kujawsko-pomorskie","Ciechocin",53.0694968,18.9327298,
"Poland","kujawsko-pomorskie","Kowalewo Pomorskie",53.15467,18.89802,
"Poland","kujawsko-pomorskie","Radomin",53.0860174,19.1694848,
"Poland","kujawsko-pomorskie","Zbójno",53.0063638,19.1119381,
"Poland","kujawsko-pomorskie","Grudziądz",53.4837486,18.753565,
"Poland","kujawsko-pomorskie","Gruta",53.4557163,18.96118,
"Poland","kujawsko-pomorskie","Łasin",53.5193613,19.0870908,
"Poland","kujawsko-pomorskie","Radzyń Chełmiński",53.385034,18.9371303,
"Poland","kujawsko-pomorskie","Rogóźno",53.5484541,18.9455238,
"Poland","kujawsko-pomorskie","Świecie nad Osą",53.4521653,19.1211134,
"Poland","kujawsko-pomorskie","Kamień Krajeński",53.5333481,17.5213872,
"Poland","kujawsko-pomorskie","Sępólno Krajeńskie",53.4513,17.53162,
"Poland","kujawsko-pomorskie","Sośno",53.4058891,17.6546227,
"Poland","kujawsko-pomorskie","Więcbork",53.3536745,17.490565,
"Poland","kujawsko-pomorskie","Bukowiec",53.4125377,18.2593203,
"Poland","kujawsko-pomorskie","Dragacz",53.4710157,18.6636178,
"Poland","kujawsko-pomorskie","Drzycim",53.530838,18.2891845,
"Poland","kujawsko-pomorskie","Jeżewo",53.5413895,18.5045829,
"Poland","kujawsko-pomorskie","Lniano",53.5128402,18.1903486,
"Poland","kujawsko-pomorskie","Nowe",53.64903,18.7271078,
"Poland","kujawsko-pomorskie","Osie",53.5985441,18.3439173,
"Poland","kujawsko-pomorskie","Pruszcz",53.3194376,18.212466,
"Poland","kujawsko-pomorskie","Świecie",53.4093843,18.4473864,
"Poland","kujawsko-pomorskie","Świekatowo",53.4186995,18.0957046,
"Poland","kujawsko-pomorskie","Warlubie",53.6220168,18.5611604,
"Poland","kujawsko-pomorskie","Cekcyn",53.5699721,18.039597,
"Poland","kujawsko-pomorskie","Gostycyn",53.4678465,17.8328698,
"Poland","kujawsko-pomorskie","Kęsowo",53.564958,17.7093359,
"Poland","kujawsko-pomorskie","Lubiewo",53.4664444,18.020609,
"Poland","kujawsko-pomorskie","Śliwice",53.7090279,18.1802823,
"Poland","kujawsko-pomorskie","Tuchola",53.58762,17.85955,
"Poland","kujawsko-pomorskie","Wąbrzeźno",53.2799634,18.9478368,
"Poland","kujawsko-pomorskie","Dębowa Łąka",53.2292261,19.0472688,
"Poland","kujawsko-pomorskie","Książki",53.3300475,19.0703817,
"Poland","kujawsko-pomorskie","Płużnica",53.3277406,18.7878879,
"Poland","kujawsko-pomorskie","Aleksandrów Kujawski",52.8765762,18.6934503,
"Poland","kujawsko-pomorskie","Ciechocinek",52.8790493,18.7948147,
"Poland","kujawsko-pomorskie","Nieszawa",52.8344014,18.8950771,
"Poland","kujawsko-pomorskie","Bądkowo",52.7033394,18.7927911,
"Poland","kujawsko-pomorskie","Koneck",52.7830135,18.7192458,
"Poland","kujawsko-pomorskie","Raciążek",52.856485,18.8133859,
"Poland","kujawsko-pomorskie","Waganiec",52.8027478,18.8631427,
"Poland","kujawsko-pomorskie","Zakrzewo",53.3159104,18.4717807,
"Poland","kujawsko-pomorskie","Inowrocław",52.7993317,18.2562032,
"Poland","kujawsko-pomorskie","Dąbrowa Biskupia",52.7902776,18.4622907,
"Poland","kujawsko-pomorskie","Gniewkowo",52.89463,18.40746,
"Poland","kujawsko-pomorskie","Janikowo",52.75378,18.11328,
"Poland","kujawsko-pomorskie","Kruszwica",52.67429,18.33159,
"Poland","kujawsko-pomorskie","Pakość",52.80141,18.08517,
"Poland","kujawsko-pomorskie","Rojewo",52.9093335,18.2725761,
"Poland","kujawsko-pomorskie","Złotniki Kujawskie",52.8886634,18.1227285,
"Poland","kujawsko-pomorskie","Lipno",52.844147,19.1784128,
"Poland","kujawsko-pomorskie","Bobrowniki",52.7795731,18.9591994,
"Poland","kujawsko-pomorskie","Chrostkowo",52.9408125,19.2373481,
"Poland","kujawsko-pomorskie","Dobrzyń nad Wisłą",52.6375464,19.3182434,
"Poland","kujawsko-pomorskie","Kikół",52.9119516,19.1199145,
"Poland","kujawsko-pomorskie","Skępe",52.8677421,19.356164,
"Poland","kujawsko-pomorskie","Tłuchowo",52.7553013,19.4129515,
"Poland","kujawsko-pomorskie","Wielgie",52.7489266,19.2533342,
"Poland","kujawsko-pomorskie","Dąbrowa",52.7380616,17.9533617,
"Poland","kujawsko-pomorskie","Jeziora Wielkie",52.5511332,18.2975,
"Poland","kujawsko-pomorskie","Mogilno",52.6577648,17.9556925,
"Poland","kujawsko-pomorskie","Strzelno",52.62772,18.17266,
"Poland","kujawsko-pomorskie","Kcynia",52.99166,17.48843,
"Poland","kujawsko-pomorskie","Mrocza",53.24285,17.60415,
"Poland","kujawsko-pomorskie","Nakło nad Notecią",53.1417565,17.6018342,
"Poland","kujawsko-pomorskie","Sadki",53.1724898,17.4327637,
"Poland","kujawsko-pomorskie","Szubin",53.00942,17.73989,
"Poland","kujawsko-pomorskie","Radziejów",52.62669,18.5257,
"Poland","kujawsko-pomorskie","Bytoń",52.5574473,18.5961026,
"Poland","kujawsko-pomorskie","Dobre",52.6934225,18.581744,
"Poland","kujawsko-pomorskie","Osięciny",52.6611484,18.7120268,
"Poland","kujawsko-pomorskie","Piotrków Kujawski",52.55106,18.49897,
"Poland","kujawsko-pomorskie","Topólka",52.4998258,18.6836599,
"Poland","kujawsko-pomorskie","Rypin",53.0657106,19.4094097,
"Poland","kujawsko-pomorskie","Brzuze",53.0579377,19.2705124,
"Poland","kujawsko-pomorskie","Rogowo",52.7251027,17.6532993,
"Poland","kujawsko-pomorskie","Skrwilno",53.0172422,19.6212916,
"Poland","kujawsko-pomorskie","Wąpielsk",53.1553229,19.2893285,
"Poland","kujawsko-pomorskie","Kowal",52.53015,19.14773,
"Poland","kujawsko-pomorskie","Baruchowo",52.4807628,19.2646971,
"Poland","kujawsko-pomorskie","Boniewo",52.4649091,18.8961182,
"Poland","kujawsko-pomorskie","Brześć Kujawski",52.60628,18.90129,
"Poland","kujawsko-pomorskie","Choceń",52.5091369,19.0294838,
"Poland","kujawsko-pomorskie","Chodecz",52.4048502,19.0274989,
"Poland","kujawsko-pomorskie","Fabianki",52.717348,19.1103724,
"Poland","kujawsko-pomorskie","Izbica Kujawska",52.4206613,18.7626608,
"Poland","kujawsko-pomorskie","Lubanie",52.7279844,18.9126298,
"Poland","kujawsko-pomorskie","Lubień Kujawski",52.4062515,19.1651495,
"Poland","kujawsko-pomorskie","Lubraniec",52.5413225,18.8315208,
"Poland","kujawsko-pomorskie","Włocławek",52.6483303,19.0677357,
"Poland","kujawsko-pomorskie","Barcin",52.8661061,17.9462615,
"Poland","kujawsko-pomorskie","Gąsawa",52.7674269,17.7555923,
"Poland","kujawsko-pomorskie","Janowiec Wielkopolski",52.75634,17.48971,
"Poland","kujawsko-pomorskie","Łabiszyn",52.95211,17.91972,
"Poland","kujawsko-pomorskie","Żnin",52.8493847,17.719477,
"Poland","lubelskie","Międzyrzec Podlaski",51.9853496,22.7848432,
"Poland","lubelskie","Terespol",52.0732257,23.6080719,
"Poland","lubelskie","Biała Podlaska",52.0387126,23.1445026,
"Poland","lubelskie","Drelów",51.9258217,22.9459676,
"Poland","lubelskie","Janów Podlaski",52.1939792,23.2121137,
"Poland","lubelskie","Kodeń",51.914075,23.6068176,
"Poland","lubelskie","Konstantynów",52.2060223,23.083666,
"Poland","lubelskie","Leśna Podlaska",52.1316395,23.0297502,
"Poland","lubelskie","Łomazy",51.9038827,23.1771438,
"Poland","lubelskie","Piszczac",51.9634209,23.4105534,
"Poland","lubelskie","Rokitno",52.1217646,23.2946865,
"Poland","lubelskie","Rossosz",51.8504638,23.0948244,
"Poland","lubelskie","Sławatycze",51.7629188,23.5544764,
"Poland","lubelskie","Sosnówka",51.7496451,23.3642026,
"Poland","lubelskie","Tuczna",51.8500731,23.4176472,
"Poland","lubelskie","Wisznice",51.7888924,23.2083805,
"Poland","lubelskie","Zalesie",52.0355397,23.3626351,
"Poland","lubelskie","Dębowa Kłoda",51.5615668,22.9847341,
"Poland","lubelskie","Jabłoń",51.7248754,23.0876499,
"Poland","lubelskie","Milanów",51.7118861,22.9024512,
"Poland","lubelskie","Parczew",51.64027,22.90032,
"Poland","lubelskie","Podedwórze",51.6494566,23.2040043,
"Poland","lubelskie","Siemień",51.6109422,22.7442254,
"Poland","lubelskie","Sosnowica",51.4990906,23.0720358,
"Poland","lubelskie","Radzyń Podlaski",51.7832025,22.6218532,
"Poland","lubelskie","Borki",51.6976363,22.5358346,
"Poland","lubelskie","Czemierniki",51.6726476,22.6385451,
"Poland","lubelskie","Kąkolewnica Wschodnia",51.8994863,22.6377219,
"Poland","lubelskie","Komarówka Podlaska",51.8376755,22.9406252,
"Poland","lubelskie","Ulan",51.5365197,23.535719,
"Poland","lubelskie","Wohyń",51.7744336,22.8144515,
"Poland","lubelskie","Włodawa",51.55178,23.55434,
"Poland","lubelskie","Hanna",51.6928285,23.4750701,
"Poland","lubelskie","Hańsk",51.4237317,23.4319211,
"Poland","lubelskie","Stary Brus",51.4990565,23.2851159,
"Poland","lubelskie","Urszulin",51.4240902,23.2190192,
"Poland","lubelskie","Wola Uhruska",51.3482823,23.578294,
"Poland","lubelskie","Wyryki",51.5740597,23.351496,
"Poland","lubelskie","Biłgoraj",50.54099,22.72198,
"Poland","lubelskie","Aleksandrów",50.4687243,22.8941711,
"Poland","lubelskie","Biszcza",50.4121145,22.6401578,
"Poland","lubelskie","Frampol",50.6715465,22.6706518,
"Poland","lubelskie","Goraj",50.7212521,22.6671287,
"Poland","lubelskie","Józefów",50.4810796,23.0540597,
"Poland","lubelskie","Księżpol",50.4230088,22.7351771,
"Poland","lubelskie","Łukowa",51.927158,22.3830241,
"Poland","lubelskie","Obsza",50.3216509,23.0249039,
"Poland","lubelskie","Potok Górny",50.3806022,22.5281687,
"Poland","lubelskie","Tarnogród",50.3610555,22.7406397,
"Poland","lubelskie","Tereszpol",50.5672336,22.8928897,
"Poland","lubelskie","Turobin",50.8232678,22.7436465,
"Poland","lubelskie","Rejowiec Fabryczny",51.1186472,23.2506815,
"Poland","lubelskie","Białopole",50.9615772,23.781344,
"Poland","lubelskie","Chełm",51.1431232,23.4711986,
"Poland","lubelskie","Dorohusk",51.1228468,23.8026613,
"Poland","lubelskie","Dubienka",51.0484966,23.8924423,
"Poland","lubelskie","Kamień",51.1253656,21.8126606,
"Poland","lubelskie","Leśniowice",51.0125776,23.4915236,
"Poland","lubelskie","Ruda",51.211076,23.5977778,
"Poland","lubelskie","Sawin",51.2755072,23.4378883,
"Poland","lubelskie","Siedliszcze",51.2120082,23.174162,
"Poland","lubelskie","Wierzbica",51.262564,23.3223797,
"Poland","lubelskie","Wojsławice",50.9190109,23.5462738,
"Poland","lubelskie","Żmudź",51.0243785,23.6432428,
"Poland","lubelskie","Rejowiec",51.1061537,23.3101028,
"Poland","lubelskie","Hrubieszów",50.80518,23.89091,
"Poland","lubelskie","Dołhobyczów",50.5863925,24.0351643,
"Poland","lubelskie","Horodło",50.8944154,24.0374679,
"Poland","lubelskie","Mircze",50.651264,23.9420657,
"Poland","lubelskie","Trzeszczany",50.8207448,23.7369314,
"Poland","lubelskie","Uchanie",50.909268,23.651102,
"Poland","lubelskie","Werbkowice",50.7535287,23.763773,
"Poland","lubelskie","Krasnystaw",50.98411,23.17194,
"Poland","lubelskie","Fajsławice",51.0951596,22.9632166,
"Poland","lubelskie","Gorzków",50.9569444,22.9694054,
"Poland","lubelskie","Izbica",50.8934674,23.1589156,
"Poland","lubelskie","Kraśniczyn",50.9198888,23.3566967,
"Poland","lubelskie","Łopiennik Górny",51.0252979,23.0112393,
"Poland","lubelskie","Rudnik",51.2826924,22.610789,
"Poland","lubelskie","Siennica Różana",51.0005293,23.3400806,
"Poland","lubelskie","Żółkiewka",50.909807,22.8346659,
"Poland","lubelskie","Tomaszów Lubelski",50.447024,23.4163099,
"Poland","lubelskie","Bełżec",50.384945,23.438111,
"Poland","lubelskie","Jarczów",50.4242989,23.5854771,
"Poland","lubelskie","Krynice",50.5799404,23.4060228,
"Poland","lubelskie","Lubycza Królewska",50.3410875,23.5185723,
"Poland","lubelskie","Łaszczów",50.5332417,23.7255557,
"Poland","lubelskie","Rachanie",50.5372538,23.5454126,
"Poland","lubelskie","Susiec",50.4145342,23.2170296,
"Poland","lubelskie","Tarnawatka",50.5309948,23.3956908,
"Poland","lubelskie","Telatyn",50.527223,23.8394021,
"Poland","lubelskie","Tyszowce",50.6170721,23.699374,
"Poland","lubelskie","Ulhówek",50.4550066,23.8350181,
"Poland","lubelskie","Adamów",51.7430636,22.2640542,
"Poland","lubelskie","Grabowiec",50.8217024,23.5497339,
"Poland","lubelskie","Komarów",50.6536065,23.5235115,
"Poland","lubelskie","Krasnobród",50.5453129,23.213387,
"Poland","lubelskie","Łabunie",50.6555507,23.3658238,
"Poland","lubelskie","Miączyn",50.7400086,23.5303182,
"Poland","lubelskie","Nielisz",50.800192,23.0440354,
"Poland","lubelskie","Radecznica",50.743136,22.8328077,
"Poland","lubelskie","Sitno",50.7280529,23.3798894,
"Poland","lubelskie","Skierbieszów",50.8641371,23.3600793,
"Poland","lubelskie","Stary Zamość",50.8209463,23.1997827,
"Poland","lubelskie","Sułów",50.771076,22.955697,
"Poland","lubelskie","Szczebrzeszyn",50.6951326,22.9800329,
"Poland","lubelskie","Zamość",50.7230879,23.2519686,
"Poland","lubelskie","Zwierzyniec",50.61404,22.97512,
"Poland","lubelskie","Lubartów",51.4598694,22.6094606,
"Poland","lubelskie","Abramów",51.470015,22.2903091,
"Poland","lubelskie","Firlej",51.5592154,22.5090879,
"Poland","lubelskie","Jeziorzany",51.6076074,22.2660212,
"Poland","lubelskie","Kamionka",51.4589085,22.4558954,
"Poland","lubelskie","Kock",51.64122,22.44796,
"Poland","lubelskie","Michów",51.5238277,22.3121506,
"Poland","lubelskie","Niedźwiada",51.5168419,22.7162255,
"Poland","lubelskie","Ostrów Lubelski",51.4938767,22.8528813,
"Poland","lubelskie","Ostrówek",51.5851104,22.5984994,
"Poland","lubelskie","Serniki",51.4371245,22.6584572,
"Poland","lubelskie","Uścimów",51.4738093,22.9261267,
"Poland","lubelskie","Bełżyce",51.17404,22.28024,
"Poland","lubelskie","Borzechów",51.0768632,22.2730418,
"Poland","lubelskie","Bychawa",51.0134847,22.5301158,
"Poland","lubelskie","Garbów",51.355095,22.3293657,
"Poland","lubelskie","Głusk",51.160511,22.6214457,
"Poland","lubelskie","Jabłonna",51.0921467,22.6327789,
"Poland","lubelskie","Jastków",51.312092,22.4582102,
"Poland","lubelskie","Konopnica",51.221438,22.4294061,
"Poland","lubelskie","Krzczonów",50.999388,22.7100218,
"Poland","lubelskie","Niedrzwica Duża",51.1090087,22.3865959,
"Poland","lubelskie","Niemce",51.3472232,22.5710684,
"Poland","lubelskie","Strzyżewice",51.0599205,22.4664757,
"Poland","lubelskie","Wojciechów",51.235627,22.244933,
"Poland","lubelskie","Wólka",51.2792665,22.6880303,
"Poland","lubelskie","Wysokie",50.9125159,22.7051445,
"Poland","lubelskie","Zakrzew",50.9055534,22.5780036,
"Poland","lubelskie","Cyców",51.2992409,23.127138,
"Poland","lubelskie","Ludwin",51.3457825,22.9059007,
"Poland","lubelskie","Łęczna",51.3009,22.88211,
"Poland","lubelskie","Milejów",51.2241954,22.9561237,
"Poland","lubelskie","Puchaczów",51.3053089,22.9914071,
"Poland","lubelskie","Spiczyn",51.354461,22.7525645,
"Poland","lubelskie","Świdnik",51.2168207,22.6914272,
"Poland","lubelskie","Mełgiew",51.2485497,22.7842374,
"Poland","lubelskie","Piaski",51.1388053,22.8485363,
"Poland","lubelskie","Rybczewice",51.0248584,22.8537385,
"Poland","lubelskie","Trawniki",51.1357164,22.9973319,
"Poland","lubelskie","Lublin",51.2464536,22.5684463,340000
"Poland","lubelskie","Batorz",50.8613999,22.4715223,
"Poland","lubelskie","Chrzanów",50.7694846,22.6005203,
"Poland","lubelskie","Dzwola",50.6766028,22.5733125,
"Poland","lubelskie","Godziszów",50.7687453,22.4965617,
"Poland","lubelskie","Janów Lubelski",50.70669,22.41078,
"Poland","lubelskie","Modliborzyce",50.7541638,22.3294471,
"Poland","lubelskie","Potok Wielki",50.7786911,22.2302157,
"Poland","lubelskie","Kraśnik",50.92339,22.226419,
"Poland","lubelskie","Annopol",50.8853797,21.8569157,
"Poland","lubelskie","Dzierzkowice",50.9628563,22.0746624,
"Poland","lubelskie","Gościeradów",50.8811441,21.9899501,
"Poland","lubelskie","Szastarka",50.8417951,22.3516927,
"Poland","lubelskie","Trzydnik Duży",50.8461016,22.166421,
"Poland","lubelskie","Urzędów",50.9930804,22.1422527,
"Poland","lubelskie","Wilkołaz",51.0026948,22.314478,
"Poland","lubelskie","Zakrzówek",50.95123,22.380232,
"Poland","lubelskie","Łuków",51.927158,22.3830241,
"Poland","lubelskie","Stoczek Łukowski",51.961354,21.9713099,
"Poland","lubelskie","Krzywda",51.8004546,22.1936372,
"Poland","lubelskie","Serokomla",51.7026264,22.3316262,
"Poland","lubelskie","Stanin",51.8962186,22.2096431,
"Poland","lubelskie","Trzebieszów",52.0122717,22.5207958,
"Poland","lubelskie","Wojcieszków",51.7840088,22.3268117,
"Poland","lubelskie","Wola Mysłowska",51.8556651,21.9644625,
"Poland","lubelskie","Chodel",51.109626,22.1363369,
"Poland","lubelskie","Józefów nad Wisłą",51.040429,21.830441,
"Poland","lubelskie","Karczmiska",51.2294825,22.0027361,
"Poland","lubelskie","Łaziska",51.1277289,21.8499663,
"Poland","lubelskie","Opole Lubelskie",51.14738,21.96914,
"Poland","lubelskie","Poniatowa",51.192893,22.0650878,
"Poland","lubelskie","Wilków",51.2528496,21.883926,
"Poland","lubelskie","Puławy",51.4164431,21.969309,
"Poland","lubelskie","Baranów",51.5377127,22.1723791,
"Poland","lubelskie","Janowiec",51.3235143,21.890312,
"Poland","lubelskie","Kazimierz Dolny",51.3180409,21.9542483,
"Poland","lubelskie","Końskowola",51.4090959,22.051777,
"Poland","lubelskie","Kurów",51.3895069,22.1851172,
"Poland","lubelskie","Markuszów",51.3745015,22.2581847,
"Poland","lubelskie","Nałęczów",51.28567,22.215293,
"Poland","lubelskie","Wąwolnica",51.294469,22.147076,
"Poland","lubelskie","Żyrzyn",51.4987887,22.0908134,
"Poland","lubelskie","Dęblin",51.56269,21.86528,
"Poland","lubelskie","Kłoczew",51.7175806,21.9900624,
"Poland","lubelskie","Nowodwór",51.6623715,22.1016538,
"Poland","lubelskie","Ryki",51.6256317,21.9326302,
"Poland","lubelskie","Stężyca",51.5822255,21.7716763,
"Poland","lubelskie","Ułęż",51.5917507,22.1073752,
"Poland","lubuskie","Kostrzyn nad Odrą",52.5871889,14.6494467,
"Poland","lubuskie","Bogdaniec",52.676188,15.0779183,
"Poland","lubuskie","Deszczno",52.6406369,15.2661167,
"Poland","lubuskie","Kłodawa",52.8195009,15.238763,
"Poland","lubuskie","Lubiszyn",52.8097841,14.9761794,
"Poland","lubuskie","Santok",52.7591844,15.4462389,
"Poland","lubuskie","Witnica",52.6730629,14.8976504,
"Poland","lubuskie","Bledzew",52.5172883,15.414068,
"Poland","lubuskie","Międzyrzecz",52.4444808,15.5779005,
"Poland","lubuskie","Przytoczna",52.5847981,15.6841644,
"Poland","lubuskie","Pszczew",52.4779801,15.7809416,
"Poland","lubuskie","Skwierzyna",52.5991741,15.5060653,
"Poland","lubuskie","Trzciel",52.363107,15.876146,
"Poland","lubuskie","Cybinka",52.1945642,14.7957248,
"Poland","lubuskie","Górzyca",52.4608705,15.4960316,
"Poland","lubuskie","Ośno Lubuskie",52.4530993,14.8755999,
"Poland","lubuskie","Rzepin",52.3464071,14.832309,
"Poland","lubuskie","Słubice",52.351065,14.5604649,
"Poland","lubuskie","Dobiegniew",52.9701812,15.7534441,
"Poland","lubuskie","Drezdenko",52.83797,15.83104,
"Poland","lubuskie","Stare Kurowo",52.8368563,15.6854083,
"Poland","lubuskie","Strzelce Krajeńskie",52.87728,15.52966,
"Poland","lubuskie","Zwierzyn",52.8082708,15.5715064,
"Poland","lubuskie","Krzeszyce",52.5831804,15.0068394,
"Poland","lubuskie","Lubniewice",52.5158607,15.250038,
"Poland","lubuskie","Słońsk",52.5633603,14.8055782,
"Poland","lubuskie","Sulęcin",52.44387,15.11697,
"Poland","lubuskie","Torzym",52.3123803,15.082202,
"Poland","lubuskie","Gorzów Wielkopolski",52.7325285,15.2369305,
"Poland","lubuskie","Gubin",51.9489824,14.7284576,
"Poland","lubuskie","Bobrowice",51.9281038,15.0571725,
"Poland","lubuskie","Bytnica",52.1706186,15.1923396,
"Poland","lubuskie","Dąbie",51.9934814,15.2190717,
"Poland","lubuskie","Krosno Odrzańskie",52.0550373,15.0972099,
"Poland","lubuskie","Maszewo",52.1202383,14.9124782,
"Poland","lubuskie","Nowa Sól",51.80344,15.71707,
"Poland","lubuskie","Bytom Odrzański",51.7311819,15.8222235,
"Poland","lubuskie","Kolsko",51.9706283,15.9490388,
"Poland","lubuskie","Kożuchów",51.7454,15.59843,
"Poland","lubuskie","Nowe Miasteczko",51.6904822,15.7319389,
"Poland","lubuskie","Otyń",51.8473317,15.7101136,
"Poland","lubuskie","Siedlisko",51.7686952,15.814192,
"Poland","lubuskie","Sława",51.8759458,16.0718133,
"Poland","lubuskie","Szlichtyngowa",51.7119647,16.2425128,
"Poland","lubuskie","Wschowa",51.8071084,16.3164767,
"Poland","lubuskie","Lubrza",52.2846103,15.3993487,
"Poland","lubuskie","Łagów",52.3330797,15.2968448,
"Poland","lubuskie","Skąpe",52.1527335,15.4584975,
"Poland","lubuskie","Szczaniec",52.2367013,15.6744376,
"Poland","lubuskie","Świebodzin",52.2472962,15.5335721,
"Poland","lubuskie","Zbąszynek",52.24253,15.81632,
"Poland","lubuskie","Babimost",52.16469,15.8274998,
"Poland","lubuskie","Bojadła",51.9667771,15.8196975,
"Poland","lubuskie","Czerwieńsk",52.0130334,15.4233905,
"Poland","lubuskie","Kargowa",52.0720997,15.8653468,
"Poland","lubuskie","Nowogród Bobrzański",51.7985281,15.235124,
"Poland","lubuskie","Sulechów",52.0831645,15.6253179,
"Poland","lubuskie","Świdnica",51.8875322,15.3899317,
"Poland","lubuskie","Trzebiechów",52.0231045,15.7255513,
"Poland","lubuskie","Zabór",51.9305974,15.6877823,
"Poland","lubuskie","Zielona Góra",51.9356214,15.5061862,
"Poland","lubuskie","Gozdnica",51.43606,15.09816,
"Poland","lubuskie","Żagań",51.6178445,15.3248325,
"Poland","lubuskie","Brzeźnica",51.7173795,15.4240467,
"Poland","lubuskie","Iłowa",51.5000229,15.1996268,
"Poland","lubuskie","Małomice",51.5557695,15.4496824,
"Poland","lubuskie","Niegosławice",51.6179533,15.7587579,
"Poland","lubuskie","Szprotawa",51.56696,15.53798,
"Poland","lubuskie","Wymiarki",51.5273962,15.0687407,
"Poland","lubuskie","Łęknica",51.5413908,14.7358341,
"Poland","lubuskie","Żary",51.6420121,15.1369992,
"Poland","lubuskie","Brody",51.7489429,14.7721466,
"Poland","lubuskie","Jasień",51.7515023,15.0136526,
"Poland","lubuskie","Lipinki Łużyckie",51.6396221,14.9996329,
"Poland","lubuskie","Lubsko",51.784371,14.9719305,
"Poland","lubuskie","Przewóz",51.4805473,14.9541628,
"Poland","lubuskie","Trzebiel",51.6132403,14.8221749,
"Poland","lubuskie","Tuplice",51.7019422,14.885995,
"Poland","łódzkie","Brzeziny",51.800255,19.7516791,
"Poland","łódzkie","Andrespol",51.7155614,19.6471483,
"Poland","łódzkie","Brójce",51.6776501,19.6445296,
"Poland","łódzkie","Dmosin",51.9040561,19.794634,
"Poland","łódzkie","Jeżów",51.8135681,19.9684918,
"Poland","łódzkie","Koluszki",51.738289,19.819639,
"Poland","łódzkie","Nowosolna",51.8099479,19.6406983,
"Poland","łódzkie","Rogów",51.8370136,19.8634282,
"Poland","łódzkie","Rzgów",51.6631882,19.489958,
"Poland","łódzkie","Tuszyn",51.6103612,19.534931,
"Poland","łódzkie","Konstantynów Łódzki",51.7476048,19.3254913,
"Poland","łódzkie","Pabianice",51.6567303,19.35776,
"Poland","łódzkie","Dłutów",51.5722743,19.3670725,
"Poland","łódzkie","Dobroń",51.6365304,19.2466797,
"Poland","łódzkie","Ksawerów",51.6808354,19.4038206,
"Poland","łódzkie","Lutomiersk",51.783896,19.1520024,
"Poland","łódzkie","Głowno",51.9643,19.71565,
"Poland","łódzkie","Ozorków",51.9632917,19.291386,
"Poland","łódzkie","Zgierz",51.8550576,19.4060704,
"Poland","łódzkie","Aleksandrów Łódzki",51.8194235,19.3038202,
"Poland","łódzkie","Parzęczew",51.9505614,19.20435,
"Poland","łódzkie","Stryków",51.90218,19.60551,
"Poland","łódzkie","Łódź",51.7592485,19.4559833,730000
"Poland","łódzkie","Bełchatów",51.3687535,19.3564248,
"Poland","łódzkie","Drużbice",51.4598736,19.3857761,
"Poland","łódzkie","Kleszczów",51.2436495,19.3128995,
"Poland","łódzkie","Kluki",51.341376,19.23964,
"Poland","łódzkie","Rusiec",51.3155536,18.9524074,
"Poland","łódzkie","Szczerców",51.3296551,19.1269593,
"Poland","łódzkie","Zelów",51.46434,19.21982,
"Poland","łódzkie","Białaczów",51.2915835,20.2804844,
"Poland","łódzkie","Drzewica",51.4506315,20.477146,
"Poland","łódzkie","Mniszków",51.3830331,20.0136604,
"Poland","łódzkie","Opoczno",51.3753379,20.2787631,
"Poland","łódzkie","Paradyż",51.30568,20.1143155,
"Poland","łódzkie","Poświętne",51.5440296,20.3372134,
"Poland","łódzkie","Sławno",51.4004738,20.1610462,
"Poland","łódzkie","Żarnów",51.2476585,20.1718335,
"Poland","łódzkie","Aleksandrów",51.8194235,19.3038202,
"Poland","łódzkie","Czarnocin",51.5844344,19.6767605,
"Poland","łódzkie","Gorzkowice",51.2000408,19.6285231,
"Poland","łódzkie","Grabica",51.4660507,19.5400374,
"Poland","łódzkie","Łęki Szlacheckie",51.2109898,19.7526658,
"Poland","łódzkie","Moszczenica",51.4965191,19.6791648,
"Poland","łódzkie","Ręczno",51.178061,19.87794,
"Poland","łódzkie","Rozprza",51.3088197,19.6915365,
"Poland","łódzkie","Sulejów",51.35412,19.88512,
"Poland","łódzkie","Wola Krzysztoporska",51.3660575,19.550443,
"Poland","łódzkie","Wolbórz",51.501732,19.8305259,
"Poland","łódzkie","Radomsko",51.0668544,19.4449387,
"Poland","łódzkie","Dobryszyce",51.148238,19.4256348,
"Poland","łódzkie","Gidle",50.9619261,19.4712316,
"Poland","łódzkie","Gomunice",51.167963,19.4883692,
"Poland","łódzkie","Kamieńsk",51.2048619,19.4988658,
"Poland","łódzkie","Kobiele Wielkie",51.0183369,19.6116419,
"Poland","łódzkie","Kodrąb",51.1055808,19.6092292,
"Poland","łódzkie","Lgota Wielka",51.1440237,19.3237727,
"Poland","łódzkie","Ładzice",51.080801,19.358759,
"Poland","łódzkie","Masłowice",51.257319,18.641827,
"Poland","łódzkie","Przedbórz",51.0880091,19.8736304,
"Poland","łódzkie","Wielgomłyny",51.0190048,19.793699,
"Poland","łódzkie","Żytno",50.9210252,19.6723758,
"Poland","łódzkie","Tomaszów Mazowiecki",51.5311945,20.0086471,
"Poland","łódzkie","Będków",51.5882629,19.7802355,
"Poland","łódzkie","Budziszewice",51.6704021,19.9675275,
"Poland","łódzkie","Czerniewice",51.6641262,20.1572804,
"Poland","łódzkie","Inowłódz",51.533827,20.2110987,
"Poland","łódzkie","Lubochnia",51.5973392,20.0394521,
"Poland","łódzkie","Rokiciny",51.6516736,19.7934904,
"Poland","łódzkie","Rzeczyca",51.6057043,20.2994135,
"Poland","łódzkie","Ujazd",51.6113555,19.8982345,
"Poland","łódzkie","Żelechlinek",51.7171027,20.0447492,
"Poland","łódzkie","Piotrków Trybunalski",51.4051721,19.7030244,
"Poland","łódzkie","Buczek",51.5268711,19.1848019,
"Poland","łódzkie","Łask",51.5906364,19.1327882,
"Poland","łódzkie","Sędziejowice",51.5060881,19.030923,
"Poland","łódzkie","Widawa",51.4378863,18.9415121,
"Poland","łódzkie","Wodzierady",51.7202419,19.1399209,
"Poland","łódzkie","Działoszyn",51.1166563,18.8651227,
"Poland","łódzkie","Kiełczygłów",51.2388342,18.9859427,
"Poland","łódzkie","Nowa Brzeźnica",51.0812089,19.183669,
"Poland","łódzkie","Pajęczno",51.14489,18.99908,
"Poland","łódzkie","Rząśnia",51.2217376,19.0422212,
"Poland","łódzkie","Siemkowice",51.2034445,18.9005027,
"Poland","łódzkie","Strzelce Wielkie",51.1446851,19.1927441,
"Poland","łódzkie","Sulmierzyce",51.1883873,19.1910281,
"Poland","łódzkie","Dalików",51.8822864,19.088468,
"Poland","łódzkie","Pęczniew",51.8034096,18.7232008,
"Poland","łódzkie","Poddębice",51.89325,18.9572,
"Poland","łódzkie","Uniejów",51.9696042,18.7966596,
"Poland","łódzkie","Wartkowice",51.985801,18.9946395,
"Poland","łódzkie","Zadzim",51.7920019,18.9076927,
"Poland","łódzkie","Sieradz",51.5956014,18.7302994,
"Poland","łódzkie","Błaszki",51.6515663,18.4344355,
"Poland","łódzkie","Brąszewice",51.5176108,18.4528779,
"Poland","łódzkie","Brzeźnio",51.4887046,18.6297862,
"Poland","łódzkie","Burzenin",51.4602634,18.8322438,
"Poland","łódzkie","Goszczanów",51.791282,18.5057881,
"Poland","łódzkie","Klonowa",51.4393178,18.3993464,
"Poland","łódzkie","Warta",51.7103227,18.6250691,
"Poland","łódzkie","Wróblew",51.1451627,18.4065091,
"Poland","łódzkie","Złoczew",51.4171963,18.6035594,
"Poland","łódzkie","Biała",51.9301973,19.4450042,
"Poland","łódzkie","Czarnożyły",51.2838615,18.5539244,
"Poland","łódzkie","Konopnica",51.3717294,18.8111436,
"Poland","łódzkie","Mokrsko",51.1548446,18.4816851,
"Poland","łódzkie","Osjaków",51.2816694,18.7647317,
"Poland","łódzkie","Ostrówek",51.3253783,18.6315188,
"Poland","łódzkie","Pątnów",51.0897363,18.6804566,
"Poland","łódzkie","Skomlin",51.1691046,18.3941226,
"Poland","łódzkie","Wieluń",51.2186,18.56892,
"Poland","łódzkie","Wierzchlas",51.1674321,18.7343036,
"Poland","łódzkie","Bolesławiec",51.2216121,18.2029865,
"Poland","łódzkie","Czastary",51.2465421,18.3170298,
"Poland","łódzkie","Galewice",51.3705588,18.2873863,
"Poland","łódzkie","Lututów",51.3737268,18.4687891,
"Poland","łódzkie","Łubnice",51.1832891,18.3065678,
"Poland","łódzkie","Sokolniki",51.3098574,18.3275179,
"Poland","łódzkie","Wieruszów",51.29486,18.15475,
"Poland","łódzkie","Zduńska Wola",51.5990328,18.9393251,
"Poland","łódzkie","Szadek",51.6915722,18.9763949,
"Poland","łódzkie","Zapolice",51.5399257,18.9125785,
"Poland","łódzkie","Kutno",52.230618,19.364278,
"Poland","łódzkie","Bedlno",52.162098,19.5776002,
"Poland","łódzkie","Dąbrowice",52.3010379,19.0844293,
"Poland","łódzkie","Krośniewice",52.25581,19.17067,
"Poland","łódzkie","Krzyżanów",52.1828337,19.4568355,
"Poland","łódzkie","Łanięta",52.3346733,19.2782681,
"Poland","łódzkie","Nowe Ostrowy",52.3055066,19.1893072,
"Poland","łódzkie","Oporów",52.2613326,19.5141998,
"Poland","łódzkie","Strzelce",52.3140995,19.3994512,
"Poland","łódzkie","Żychlin",52.24396,19.62596,
"Poland","łódzkie","Łęczyca",52.05959,19.19969,
"Poland","łódzkie","Daszyna",52.157594,19.1507801,
"Poland","łódzkie","Góra Świętej Małgorzaty",52.0558597,19.3196262,
"Poland","łódzkie","Grabów",52.1260857,19.0103213,
"Poland","łódzkie","Piątek",52.0446035,19.4915963,
"Poland","łódzkie","Świnice Warckie",52.0408964,18.9179279,
"Poland","łódzkie","Witonia",52.1462274,19.2995382,
"Poland","łódzkie","Łowicz",52.1067916,19.9453744,
"Poland","łódzkie","Bielawy",52.0759841,19.6555851,
"Poland","łódzkie","Chąśno",52.2002031,19.93008,
"Poland","łódzkie","Domaniewice",52.0244257,19.7990476,
"Poland","łódzkie","Kiernozia",52.2552455,19.8684556,
"Poland","łódzkie","Kocierzew Południowy",52.2037439,20.0355858,
"Poland","łódzkie","Łyszkowice",51.9838396,19.9049106,
"Poland","łódzkie","Nieborów",52.0688185,20.0695934,
"Poland","łódzkie","Zduny",52.169842,19.7877606,
"Poland","łódzkie","Rawa Mazowiecka",51.76623,20.25623,
"Poland","łódzkie","Biała Rawska",51.80772,20.47248,
"Poland","łódzkie","Cielądz",51.7076946,20.3430805,
"Poland","łódzkie","Regnów",51.7480675,20.3872239,
"Poland","łódzkie","Sadkowice",51.7152165,20.6046083,
"Poland","łódzkie","Bolimów",52.0763971,20.1635963,
"Poland","łódzkie","Głuchów",51.5657755,19.5889075,
"Poland","łódzkie","Godzianów",51.8936388,20.0415242,
"Poland","łódzkie","Kowiesy",51.8927099,20.4162507,
"Poland","łódzkie","Lipce Reymontowskie",51.8978017,19.9416859,
"Poland","łódzkie","Maków",51.9626267,20.0252426,
"Poland","łódzkie","Nowy Kawęczyn",51.8857684,20.2471581,
"Poland","łódzkie","Skierniewice",51.9547169,20.1583303,
"Poland","łódzkie","Słupia",51.8600707,19.9823623,
"Poland","małopolskie","Bochnia",49.9684577,20.4303285,
"Poland","małopolskie","Drwinia",50.0950038,20.4334818,
"Poland","małopolskie","Lipnica Murowana",49.8583899,20.5247926,
"Poland","małopolskie","Łapanów",49.8709627,20.3132252,
"Poland","małopolskie","Nowy Wiśnicz",49.9158004,20.4612616,
"Poland","małopolskie","Rzezawa",50.0243219,20.5265147,
"Poland","małopolskie","Trzciana",49.8366107,20.3843832,
"Poland","małopolskie","Żegocina",49.8074468,20.4270549,
"Poland","małopolskie","Czernichów",49.9895513,19.6821026,
"Poland","małopolskie","Igołomia",50.0921434,20.2479864,
"Poland","małopolskie","Iwanowice",50.2329574,19.9674657,
"Poland","małopolskie","Jerzmanowice",50.2118918,19.7463992,
"Poland","małopolskie","Kocmyrzów",50.1289292,20.1314315,
"Poland","małopolskie","Krzeszowice",50.1527811,19.6340026,
"Poland","małopolskie","Liszki",50.0348601,19.7573936,
"Poland","małopolskie","Michałowice",50.1607887,20.0113926,
"Poland","małopolskie","Mogilany",49.9478668,19.8866771,
"Poland","małopolskie","Skała",50.2304098,19.8541516,
"Poland","małopolskie","Skawina",49.9751815,19.8288749,
"Poland","małopolskie","Słomniki",50.23993,20.08212,
"Poland","małopolskie","Sułoszowa",50.2674103,19.7330258,
"Poland","małopolskie","Świątniki Górne",49.9411601,19.9541354,
"Poland","małopolskie","Wielka Wieś",50.1544394,19.8368024,
"Poland","małopolskie","Zabierzów",50.1138606,19.7981266,
"Poland","małopolskie","Zielonki",50.133176,19.9262381,
"Poland","małopolskie","Charsznica",50.4155327,19.9071221,
"Poland","małopolskie","Gołcza",50.3292954,19.908637,
"Poland","małopolskie","Kozłów",50.4813038,20.0210743,
"Poland","małopolskie","Książ Wielki",50.4432956,20.1398642,
"Poland","małopolskie","Miechów",50.3568703,20.0274126,
"Poland","małopolskie","Racławice",50.3256947,20.2370492,
"Poland","małopolskie","Słaboszów",50.3869066,20.2739969,
"Poland","małopolskie","Dobczyce",49.8811735,20.0890793,
"Poland","małopolskie","Lubień",49.7154839,19.9759628,
"Poland","małopolskie","Myślenice",49.83347,19.93965,
"Poland","małopolskie","Pcim",49.7667848,19.9461247,
"Poland","małopolskie","Raciechowice",49.835261,20.1574351,
"Poland","małopolskie","Siepraw",49.9086926,19.9865104,
"Poland","małopolskie","Sułkowice",49.83879,19.79959,
"Poland","małopolskie","Tokarnia",49.7320961,19.8791474,
"Poland","małopolskie","Wiśniowa",49.7874878,20.1149907,
"Poland","małopolskie","Koniusza",50.1676442,20.2113501,
"Poland","małopolskie","Koszyce",50.1702758,20.5789054,
"Poland","małopolskie","Nowe Brzesko",50.13151,20.3745724,
"Poland","małopolskie","Pałecznica",50.281027,20.2964367,
"Poland","małopolskie","Proszowice",50.1921916,20.2890751,
"Poland","małopolskie","Radziemice",50.2536299,20.210576,
"Poland","małopolskie","Biskupice",49.9635512,20.1562094,
"Poland","małopolskie","Gdów",49.9080376,20.1984873,
"Poland","małopolskie","Kłaj",50.0045178,20.2839842,
"Poland","małopolskie","Niepołomice",50.0406662,20.2225326,
"Poland","małopolskie","Wieliczka",49.9870619,20.0647971,
"Poland","małopolskie","Kraków",50.0646501,19.9449799,760000
"Poland","małopolskie","Gorlice",49.6546159,21.1596321,
"Poland","małopolskie","Biecz",49.73554,21.26331,
"Poland","małopolskie","Bobowa",49.7102798,20.9509659,
"Poland","małopolskie","Lipinki",49.6718969,21.2911553,
"Poland","małopolskie","Łużna",49.6907968,21.051741,
"Poland","małopolskie","Moszczenica",49.7312935,21.09153,
"Poland","małopolskie","Ropa",49.590972,21.0442846,
"Poland","małopolskie","Sękowa",49.6227745,21.1979642,
"Poland","małopolskie","Uście Gorlickie",49.5057426,21.1836071,
"Poland","małopolskie","Limanowa",49.70587,20.42228,
"Poland","małopolskie","Mszana Dolna",49.67403,20.07982,
"Poland","małopolskie","Dobra",49.661195,20.2366178,
"Poland","małopolskie","Jodłownik",49.7839293,20.2640903,
"Poland","małopolskie","Kamienica",49.6031835,20.3215953,
"Poland","małopolskie","Laskowa",49.7543397,20.4838774,
"Poland","małopolskie","Łukowica",49.6265449,20.4839134,
"Poland","małopolskie","Niedźwiedź",49.589746,20.1033441,
"Poland","małopolskie","Słopnice",49.6763801,20.3283354,
"Poland","małopolskie","Tymbark",49.7314832,20.3196044,
"Poland","małopolskie","Grybów",49.62406,20.94789,
"Poland","małopolskie","Chełmiec",49.6749679,20.6822236,
"Poland","małopolskie","Gródek nad Dunajcem",49.7682733,20.7537745,
"Poland","małopolskie","Kamionka Wielka",49.5820313,20.8374413,
"Poland","małopolskie","Korzenna",49.685735,20.8422753,
"Poland","małopolskie","Krynica-Zdrój",49.4215158,20.9594208,
"Poland","małopolskie","Łabowa",49.4984006,20.8861249,
"Poland","małopolskie","Łącko",49.5570923,20.4360031,
"Poland","małopolskie","Łososina Dolna",49.7417165,20.6247806,
"Poland","małopolskie","Muszyna",49.3565901,20.8971615,
"Poland","małopolskie","Nawojowa",49.5599707,20.746196,
"Poland","małopolskie","Piwniczna-Zdrój",49.4396092,20.713445,
"Poland","małopolskie","Podegrodzie",49.5759555,20.5888108,
"Poland","małopolskie","Rytro",49.4897541,20.6695079,
"Poland","małopolskie","Stary Sącz",49.564452,20.6327686,
"Poland","małopolskie","Nowy Targ",49.4774647,20.032096,
"Poland","małopolskie","Szczawnica",49.4230451,20.4829528,
"Poland","małopolskie","Czarny Dunajec",49.4465144,19.8387765,
"Poland","małopolskie","Czorsztyn",49.4374074,20.3270231,
"Poland","małopolskie","Jabłonka",49.4793014,19.6938032,
"Poland","małopolskie","Krościenko nad Dunajcem",49.4535117,20.3854489,
"Poland","małopolskie","Lipnica Wielka",49.5111294,19.5939751,
"Poland","małopolskie","Łapsze Niżne",49.3968783,20.2443022,
"Poland","małopolskie","Ochotnica Dolna",49.5181736,20.3219541,
"Poland","małopolskie","Raba Wyżna",49.5646496,19.8803507,
"Poland","małopolskie","Rabka-Zdrój",49.6090128,19.9671769,
"Poland","małopolskie","Spytkowice",49.5789567,19.8084806,
"Poland","małopolskie","Szaflary",49.426862,20.0264196,
"Poland","małopolskie","Zakopane",49.299181,19.9495621,
"Poland","małopolskie","Biały Dunajec",49.3665226,20.0020453,
"Poland","małopolskie","Bukowina Tatrzańska",49.3422914,20.1075143,
"Poland","małopolskie","Kościelisko",49.2902935,19.8895826,
"Poland","małopolskie","Poronin",49.3378366,20.0029577,
"Poland","małopolskie","Nowy Sącz",49.6174535,20.7153326,
"Poland","małopolskie","Alwernia",50.0598063,19.5394784,
"Poland","małopolskie","Babice",50.0518206,19.4168349,
"Poland","małopolskie","Chrzanów",50.1345643,19.4001765,
"Poland","małopolskie","Libiąż",50.1037928,19.3156774,
"Poland","małopolskie","Trzebinia",50.15847,19.4694,
"Poland","małopolskie","Bukowno",50.26508,19.44484,
"Poland","małopolskie","Sławków",50.3045979,19.3880198,
"Poland","małopolskie","Bolesław",50.2722525,20.9051145,
"Poland","małopolskie","Klucze",50.3730194,19.5999763,
"Poland","małopolskie","Olkusz",50.2813157,19.5656869,
"Poland","małopolskie","Trzyciąż",50.3065985,19.7945653,
"Poland","małopolskie","Wolbrom",50.37939,19.7584,
"Poland","małopolskie","Oświęcim",50.0343982,19.2097782,
"Poland","małopolskie","Brzeszcze",49.9815,19.15303,
"Poland","małopolskie","Chełmek",50.10002,19.24873,
"Poland","małopolskie","Kęty",49.8807299,19.2228003,
"Poland","małopolskie","Osiek",49.9478114,19.2788604,
"Poland","małopolskie","Polanka Wielka",49.9857512,19.3058259,
"Poland","małopolskie","Przeciszów",49.9949059,19.3761329,
"Poland","małopolskie","Zator",49.99621,19.43747,
"Poland","małopolskie","Jordanów",49.64913,19.83001,
"Poland","małopolskie","Sucha Beskidzka",49.74127,19.58636,
"Poland","małopolskie","Budzów",49.788203,19.70598,
"Poland","małopolskie","Bystra",49.6620185,21.0863957,
"Poland","małopolskie","Maków Podhalański",49.72953,19.67695,
"Poland","małopolskie","Stryszawa",49.7068507,19.5040043,
"Poland","małopolskie","Zawoja",49.6680859,19.5821187,
"Poland","małopolskie","Zembrzyce",49.7751811,19.6012239,
"Poland","małopolskie","Andrychów",49.8548934,19.3412842,
"Poland","małopolskie","Brzeźnica",49.9503154,19.6317581,
"Poland","małopolskie","Kalwaria Zebrzydowska",49.86686,19.67676,
"Poland","małopolskie","Lanckorona",49.8456813,19.7150795,
"Poland","małopolskie","Mucharz",49.8180332,19.5362496,
"Poland","małopolskie","Stryszów",49.8220214,19.6347637,
"Poland","małopolskie","Tomice",49.900981,19.4723789,
"Poland","małopolskie","Wadowice",49.8827856,19.4939579,
"Poland","małopolskie","Wieprz",49.9092698,19.3787383,
"Poland","małopolskie","Borzęcin",50.0651095,20.7116661,
"Poland","małopolskie","Brzesko",49.9647187,20.6034471,
"Poland","małopolskie","Czchów",49.8368614,20.6802794,
"Poland","małopolskie","Dębno",49.4645783,20.2029754,
"Poland","małopolskie","Gnojnik",49.8935129,20.6087945,
"Poland","małopolskie","Iwkowa",49.7999816,20.5832965,
"Poland","małopolskie","Szczurowa",50.1115565,20.576642,
"Poland","małopolskie","Dąbrowa Tarnowska",50.17462,20.98638,
"Poland","małopolskie","Gręboszów",50.2527847,20.7999452,
"Poland","małopolskie","Mędrzechów",50.2875939,20.9589896,
"Poland","małopolskie","Olesno",50.2070171,20.9292842,
"Poland","małopolskie","Radgoszcz",50.2056733,21.112144,
"Poland","małopolskie","Szczucin",50.3100129,21.1256128,
"Poland","małopolskie","Ciężkowice",49.7856205,20.973264,
"Poland","małopolskie","Gromnik",49.8402393,20.9396656,
"Poland","małopolskie","Lisia Góra",50.0940333,21.0719149,
"Poland","małopolskie","Pleśna",49.924413,20.8905555,
"Poland","małopolskie","Radłów",50.0997723,20.8132616,
"Poland","małopolskie","Ryglice",49.8788079,21.1375994,
"Poland","małopolskie","Rzepiennik Strzyżewski",49.8070859,21.0356448,
"Poland","małopolskie","Skrzyszów",49.9934264,21.0616726,
"Poland","małopolskie","Tarnów",50.0121011,20.9858407,
"Poland","małopolskie","Tuchów",49.89477,21.05416,
"Poland","małopolskie","Wierzchosławice",50.0207379,20.8341638,
"Poland","małopolskie","Wietrzychowice",50.1775514,20.7419169,
"Poland","małopolskie","Wojnicz",49.9579835,20.8378422,
"Poland","małopolskie","Zakliczyn",49.8557953,20.8093377,
"Poland","małopolskie","Żabno",50.1452996,20.9142627,
"Poland","małopolskie","Szerzyny",49.8287686,21.2253281,
"Poland","mazowieckie","Ciechanów",52.8814838,20.6197948,
"Poland","mazowieckie","Glinojeck",52.81954,20.29179,
"Poland","mazowieckie","Gołymin",52.8132406,20.8545476,
"Poland","mazowieckie","Grudusk",53.0322347,20.6371721,
"Poland","mazowieckie","Ojrzeń",52.7532348,20.5077962,
"Poland","mazowieckie","Opinogóra Górna",52.9381545,20.7228764,
"Poland","mazowieckie","Regimin",52.9536205,20.5756757,
"Poland","mazowieckie","Sońsk",52.7588792,20.7233771,
"Poland","mazowieckie","Gostynin",52.4293273,19.4619176,
"Poland","mazowieckie","Pacyna",52.3065072,19.7011001,
"Poland","mazowieckie","Sanniki",52.3301963,19.8677926,
"Poland","mazowieckie","Szczawin Kościelny",52.3398842,19.5718269,
"Poland","mazowieckie","Mława",53.1122632,20.3837208,
"Poland","mazowieckie","Dzierzgowo",53.1523281,20.6631146,
"Poland","mazowieckie","Lipowiec Kościelny",53.1171771,20.2251076,
"Poland","mazowieckie","Radzanów",52.9466568,20.1123531,
"Poland","mazowieckie","Strzegowo",52.9263969,20.2900627,
"Poland","mazowieckie","Stupsk",53.0226508,20.4361149,
"Poland","mazowieckie","Szreńsk",53.0123706,20.1200333,
"Poland","mazowieckie","Szydłowo",53.07993,20.497098,
"Poland","mazowieckie","Wieczfnia Kościelna",53.2023256,20.5036688,
"Poland","mazowieckie","Wiśniewo",53.0556528,20.3190691,
"Poland","mazowieckie","Bielsk",52.6546056,19.8049941,
"Poland","mazowieckie","Bodzanów",52.4998457,20.0301549,
"Poland","mazowieckie","Brudzeń Duży",52.657401,19.5307511,
"Poland","mazowieckie","Bulkowo",52.5403939,20.1269182,
"Poland","mazowieckie","Drobin",52.7374731,19.9917009,
"Poland","mazowieckie","Gąbin",52.3974171,19.7356531,
"Poland","mazowieckie","Łąck",52.4657385,19.6111852,
"Poland","mazowieckie","Mała Wieś",52.4599545,20.091217,
"Poland","mazowieckie","Nowy Duninów",52.541061,19.4968945,
"Poland","mazowieckie","Radzanowo",52.5867522,19.8753628,
"Poland","mazowieckie","Słubice",52.3688525,19.9383297,
"Poland","mazowieckie","Słupno",52.5152873,19.8391706,
"Poland","mazowieckie","Stara Biała",52.6238908,19.6611883,
"Poland","mazowieckie","Staroźreby",52.6439069,20.0570985,
"Poland","mazowieckie","Wyszogród",52.391799,20.1900369,
"Poland","mazowieckie","Płońsk",52.6230132,20.3753589,
"Poland","mazowieckie","Raciąż",52.7815,20.11774,
"Poland","mazowieckie","Baboszewo",52.7078343,20.2625856,
"Poland","mazowieckie","Czerwińsk nad Wisłą",52.3978795,20.3094784,
"Poland","mazowieckie","Dzierzążnia",52.5917333,20.2261076,
"Poland","mazowieckie","Joniec",52.6005302,20.5816598,
"Poland","mazowieckie","Naruszewo",52.5181919,20.3264088,
"Poland","mazowieckie","Nowe Miasto",52.6806269,20.6620485,
"Poland","mazowieckie","Sochocin",52.6873072,20.4722402,
"Poland","mazowieckie","Załuski",52.4851951,20.5099445,
"Poland","mazowieckie","Sierpc",52.8568142,19.669432,
"Poland","mazowieckie","Gozdowo",52.725849,19.6503408,
"Poland","mazowieckie","Mochowo",52.7864381,19.5567303,
"Poland","mazowieckie","Rościszewo",52.9340866,19.7357,
"Poland","mazowieckie","Szczutowo",52.9282503,19.5747536,
"Poland","mazowieckie","Zawidz",52.8229976,19.8616017,
"Poland","mazowieckie","Bieżuń",52.9606362,19.8892395,
"Poland","mazowieckie","Kuczbork",53.0995517,20.070562,
"Poland","mazowieckie","Lubowidz",53.1032048,19.7922473,
"Poland","mazowieckie","Lutocin",52.9812201,19.766715,
"Poland","mazowieckie","Siemiątkowo",52.8731959,20.0215473,
"Poland","mazowieckie","Żuromin",53.0660775,19.9089047,
"Poland","mazowieckie","Płock",52.5463446,19.7065364,
"Poland","mazowieckie","Huszlew",52.1274499,22.8346502,
"Poland","mazowieckie","Łosice",52.2115649,22.7184846,
"Poland","mazowieckie","Olszanka",52.1520286,22.658595,
"Poland","mazowieckie","Platerów",52.3171591,22.7834411,
"Poland","mazowieckie","Sarnaki",52.3147542,22.8893801,
"Poland","mazowieckie","Stara Kornica",52.1741837,22.9436435,
"Poland","mazowieckie","Maków Mazowiecki",52.8649711,21.1001154,
"Poland","mazowieckie","Czerwonka",52.3515118,21.8711807,
"Poland","mazowieckie","Karniewo",52.8360425,20.989412,
"Poland","mazowieckie","Krasnosielc",53.0337688,21.1573579,
"Poland","mazowieckie","Młynarze",52.958938,21.3991182,
"Poland","mazowieckie","Płoniawy",52.959496,21.0954627,
"Poland","mazowieckie","Różan",52.8873011,21.391082,
"Poland","mazowieckie","Rzewnie",52.8234799,21.3426286,
"Poland","mazowieckie","Sypniewo",53.0145171,21.282915,
"Poland","mazowieckie","Szelków",52.8222695,21.2075748,
"Poland","mazowieckie","Baranowo",53.175543,21.296838,
"Poland","mazowieckie","Czarnia",53.3471396,21.1924084,
"Poland","mazowieckie","Czerwin",52.9320153,21.7185469,
"Poland","mazowieckie","Goworowo",52.8779171,21.5301636,
"Poland","mazowieckie","Kadzidło",53.2375857,21.4662016,
"Poland","mazowieckie","Lelis",53.1863771,21.5674792,
"Poland","mazowieckie","Łyse",53.36665,21.5709875,
"Poland","mazowieckie","Myszyniec",53.3629715,21.350053,
"Poland","mazowieckie","Olszewo",53.0431389,19.95463,
"Poland","mazowieckie","Rzekuń",53.0463851,21.6508279,
"Poland","mazowieckie","Troszyn",53.0309195,21.7321687,
"Poland","mazowieckie","Ostrów Mazowiecka",52.8024372,21.8950416,
"Poland","mazowieckie","Andrzejewo",52.8288783,22.1921471,
"Poland","mazowieckie","Boguty",52.7220001,22.3910257,
"Poland","mazowieckie","Brok",52.6973953,21.8470553,
"Poland","mazowieckie","Małkinia Górna",52.6934663,22.0269962,
"Poland","mazowieckie","Nur",52.6681474,22.3189404,
"Poland","mazowieckie","Stary Lubotyń",52.922181,21.9450089,
"Poland","mazowieckie","Szulborze Wielkie",52.7526398,22.2360956,
"Poland","mazowieckie","Wąsewo",52.8423967,21.7163435,
"Poland","mazowieckie","Zaręby Kościelne",52.7569762,22.1237289,
"Poland","mazowieckie","Przasnysz",53.018984,20.880358,
"Poland","mazowieckie","Chorzele",53.2600919,20.8970642,
"Poland","mazowieckie","Czernice Borowe",53.0672599,20.7535563,
"Poland","mazowieckie","Jednorożec",53.1405147,21.0511534,
"Poland","mazowieckie","Krasne",52.9167792,20.9011434,
"Poland","mazowieckie","Krzynowłoga Mała",53.1458749,20.8157058,
"Poland","mazowieckie","Gzy",52.7402052,20.9439427,
"Poland","mazowieckie","Obryte",52.7066595,21.2481067,
"Poland","mazowieckie","Pokrzywnica",52.600238,21.0388323,
"Poland","mazowieckie","Pułtusk",52.6974595,21.085207,
"Poland","mazowieckie","Świercze",52.6707552,20.7774272,
"Poland","mazowieckie","Winnica",52.6429583,20.9415753,
"Poland","mazowieckie","Zatory",52.6288315,21.1854483,
"Poland","mazowieckie","Domanice",52.0472888,22.1774654,
"Poland","mazowieckie","Korczew",52.3530467,22.613639,
"Poland","mazowieckie","Kotuń",52.1771757,22.0676779,
"Poland","mazowieckie","Mokobody",52.2653151,22.1118803,
"Poland","mazowieckie","Mordy",52.2117033,22.5177976,
"Poland","mazowieckie","Paprotnia",52.2120982,20.4077318,
"Poland","mazowieckie","Przesmyki",52.2720762,22.6184595,
"Poland","mazowieckie","Siedlce",52.1676031,22.2901645,
"Poland","mazowieckie","Skórzec",52.1035378,22.1183474,
"Poland","mazowieckie","Suchożebry",52.2698018,22.294069,
"Poland","mazowieckie","Wiśniew",52.257584,21.724571,
"Poland","mazowieckie","Wodynie",52.0323269,21.9704338,
"Poland","mazowieckie","Zbuczyn",52.0893393,22.438503,
"Poland","mazowieckie","Sokołów Podlaski",52.407031,22.2533607,
"Poland","mazowieckie","Bielany",52.338939,22.2274668,
"Poland","mazowieckie","Ceranów",52.6308198,22.2287166,
"Poland","mazowieckie","Jabłonna Lacka",52.4765628,22.4422882,
"Poland","mazowieckie","Kosów Lacki",52.596028,22.147003,
"Poland","mazowieckie","Repki",52.3912764,22.4152551,
"Poland","mazowieckie","Sabnie",52.5046907,22.2961374,
"Poland","mazowieckie","Sterdyń",52.5768719,22.2972581,
"Poland","mazowieckie","Węgrów",52.3991566,22.0164265,
"Poland","mazowieckie","Grębków",52.2690001,21.9100671,
"Poland","mazowieckie","Korytnica",52.4228293,21.7983007,
"Poland","mazowieckie","Liw",52.3718313,21.9623939,
"Poland","mazowieckie","Łochów",52.5307,21.68182,
"Poland","mazowieckie","Miedzna",52.4645268,22.0873172,
"Poland","mazowieckie","Sadowne",52.6397304,21.8353565,
"Poland","mazowieckie","Stoczek",52.5385826,21.8943707,
"Poland","mazowieckie","Wierzbno",52.3220396,21.8569895,
"Poland","mazowieckie","Brańszczyk",52.6871476,21.5884097,
"Poland","mazowieckie","Długosiodło",52.7765719,21.5903277,
"Poland","mazowieckie","Rząśnik",52.7223232,21.4031126,
"Poland","mazowieckie","Somianka",52.5668938,21.2772067,
"Poland","mazowieckie","Wyszków",52.5928523,21.458395,
"Poland","mazowieckie","Zabrodzie",52.5059092,21.4226282,
"Poland","mazowieckie","Ostrołęka",53.0876544,21.5592554,
"Poland","mazowieckie","Białobrzegi",51.6464991,20.9565466,
"Poland","mazowieckie","Promna",51.6984754,20.934244,
"Poland","mazowieckie","Stara Błotnica",51.5429846,21.0004876,
"Poland","mazowieckie","Stromiec",51.6264851,21.083626,
"Poland","mazowieckie","Wyśmierzyce",51.6248663,20.813976,
"Poland","mazowieckie","Garbatka",52.0293631,20.8201651,
"Poland","mazowieckie","Głowaczów",51.6309221,21.2938108,
"Poland","mazowieckie","Gniewoszów",51.4891892,21.8014892,
"Poland","mazowieckie","Grabów nad Pilicą",51.7303035,21.2351713,
"Poland","mazowieckie","Kozienice",51.5855328,21.5511768,
"Poland","mazowieckie","Magnuszew",51.764669,21.379957,
"Poland","mazowieckie","Sieciechów",51.5322793,21.7501288,
"Poland","mazowieckie","Chotcza",51.250531,21.7269951,
"Poland","mazowieckie","Ciepielów",51.2346803,21.5252738,
"Poland","mazowieckie","Lipsko",51.159,21.64911,
"Poland","mazowieckie","Rzeczniów",51.1321158,21.3744117,
"Poland","mazowieckie","Sienno",51.0877207,21.4766292,
"Poland","mazowieckie","Solec nad Wisłą",51.1354788,21.763315,
"Poland","mazowieckie","Borkowice",51.303596,20.6943206,
"Poland","mazowieckie","Gielniów",51.3731099,20.4942173,
"Poland","mazowieckie","Klwów",51.52142,20.6423078,
"Poland","mazowieckie","Odrzywół",51.5432175,20.5231343,
"Poland","mazowieckie","Potworów",51.4802843,20.7465335,
"Poland","mazowieckie","Przysucha",51.3578773,20.6317958,
"Poland","mazowieckie","Rusinów",51.4445348,20.5829574,
"Poland","mazowieckie","Wieniawa",51.3624209,20.7908398,
"Poland","mazowieckie","Pionki",51.476195,21.450936,
"Poland","mazowieckie","Gózd",51.3686555,21.341701,
"Poland","mazowieckie","Iłża",51.16305,21.23991,
"Poland","mazowieckie","Jastrzębia",51.5171798,21.2545126,
"Poland","mazowieckie","Jedlińsk",51.4890738,21.1120362,
"Poland","mazowieckie","Jedlnia",51.4636926,21.360824,
"Poland","mazowieckie","Kowala",51.3261206,21.1026643,
"Poland","mazowieckie","Przytyk",51.4617501,20.9131216,
"Poland","mazowieckie","Skaryszew",51.3106091,21.2523841,
"Poland","mazowieckie","Wierzbica",51.249084,21.0819865,
"Poland","mazowieckie","Wolanów",51.3854243,20.9619096,
"Poland","mazowieckie","Zakrzew",51.4496188,21.0295095,
"Poland","mazowieckie","Chlewiska",51.2434408,20.7830258,
"Poland","mazowieckie","Jastrząb",51.241798,20.9681625,
"Poland","mazowieckie","Mirów",51.1870151,21.026919,
"Poland","mazowieckie","Orońsko",51.3101774,20.9538842,
"Poland","mazowieckie","Szydłowiec",51.2279908,20.8611466,
"Poland","mazowieckie","Kazanów",51.2574531,21.4066394,
"Poland","mazowieckie","Policzna",51.4247246,21.6795295,
"Poland","mazowieckie","Przyłęk",51.3255946,21.736643,
"Poland","mazowieckie","Tczów",51.3335466,21.4678674,
"Poland","mazowieckie","Zwoleń",51.3553788,21.587725,
"Poland","mazowieckie","Radom",51.4027236,21.1471333,
"Poland","mazowieckie","Warszawa",52.2296756,21.0122287,1765000
"Poland","mazowieckie","Bemowo",52.2409067,20.9113297,
"Poland","mazowieckie","Białołęka",52.3289879,21.0076793,
"Poland","mazowieckie","Mokotów",52.194157,21.0346955,
"Poland","mazowieckie","Ochota",52.2103359,20.9712206,
"Poland","mazowieckie","Praga",52.2471608,21.0344245,
"Poland","mazowieckie","Rembertów",52.2630714,21.145839,
"Poland","mazowieckie","Śródmieście",52.2296756,21.0122287,
"Poland","mazowieckie","Targówek",52.2823819,21.0653678,
"Poland","mazowieckie","Ursus",52.1951226,20.8837885,
"Poland","mazowieckie","Ursynów",52.1378544,21.0291229,
"Poland","mazowieckie","Wawer",52.1962166,21.1782251,
"Poland","mazowieckie","Wesoła",52.2329397,21.225198,
"Poland","mazowieckie","Wilanów",52.1561298,21.1116284,
"Poland","mazowieckie","Włochy",52.1799062,20.9478161,
"Poland","mazowieckie","Wola",52.2333751,20.9571835,
"Poland","mazowieckie","Żoliborz",52.2693286,20.9818745,
"Poland","mazowieckie","Garwolin",51.8971987,21.6149393,
"Poland","mazowieckie","Łaskarzew",51.78914,21.59133,
"Poland","mazowieckie","Borowie",51.9476764,21.7771981,
"Poland","mazowieckie","Górzno",51.846104,21.7287671,
"Poland","mazowieckie","Maciejowice",51.6919243,21.5535126,
"Poland","mazowieckie","Miastków Kościelny",51.8792664,21.8436105,
"Poland","mazowieckie","Parysów",51.974638,21.6802041,
"Poland","mazowieckie","Pilawa",51.95914,21.53057,
"Poland","mazowieckie","Sobolew",51.7446615,21.6805919,
"Poland","mazowieckie","Trojanów",51.7147076,21.7780514,
"Poland","mazowieckie","Wilga",51.8407513,21.4105498,
"Poland","mazowieckie","Żelechów",51.81054,21.89725,
"Poland","mazowieckie","Legionowo",52.4044483,20.9499697,
"Poland","mazowieckie","Jabłonna",52.3780696,20.9170219,
"Poland","mazowieckie","Nieporęt",52.4325321,21.0310066,
"Poland","mazowieckie","Serock",52.5103662,21.0691044,
"Poland","mazowieckie","Wieliszew",52.4571202,20.9076172,
"Poland","mazowieckie","Mińsk Mazowiecki",52.1792836,21.5721057,
"Poland","mazowieckie","Sulejówek",52.2524241,21.2690107,
"Poland","mazowieckie","Cegłów",52.1363862,21.7213942,
"Poland","mazowieckie","Dębe Wielkie",52.2081565,21.46318,
"Poland","mazowieckie","Dobre",52.3256253,21.6649405,
"Poland","mazowieckie","Halinów",52.2283049,21.355139,
"Poland","mazowieckie","Jakubów",52.2309398,21.6932492,
"Poland","mazowieckie","Kałuszyn",52.2067049,21.808426,
"Poland","mazowieckie","Latowicz",52.0264758,21.8107748,
"Poland","mazowieckie","Mrozy",52.1656651,21.8024361,
"Poland","mazowieckie","Siennica",52.1029591,21.6060035,
"Poland","mazowieckie","Stanisławów",52.2896401,21.5540952,
"Poland","mazowieckie","Nowy Dwór Mazowiecki",52.4465078,20.6925219,
"Poland","mazowieckie","Czosnów",52.3753359,20.6859937,
"Poland","mazowieckie","Leoncin",52.3570855,20.4804567,
"Poland","mazowieckie","Nasielsk",52.58991,20.80568,
"Poland","mazowieckie","Pomiechówek",52.4783097,20.7316158,
"Poland","mazowieckie","Zakroczym",52.4379891,20.6119812,
"Poland","mazowieckie","Józefów",52.1368197,21.2354266,
"Poland","mazowieckie","Otwock",52.1053186,21.2616248,
"Poland","mazowieckie","Celestynów",52.0482246,21.3687944,
"Poland","mazowieckie","Karczew",52.0757659,21.2500669,
"Poland","mazowieckie","Kołbiel",52.0694042,21.4909319,
"Poland","mazowieckie","Osieck",51.965973,21.419225,
"Poland","mazowieckie","Sobienie",51.9270304,21.3060943,
"Poland","mazowieckie","Wiązowna",52.1676083,21.3250753,
"Poland","mazowieckie","Kobyłka",52.339238,21.1959846,
"Poland","mazowieckie","Marki",52.3213443,21.1035662,
"Poland","mazowieckie","Ząbki",52.2870682,21.1079604,
"Poland","mazowieckie","Zielonka",52.3034398,21.1607239,
"Poland","mazowieckie","Dąbrówka",52.4903059,21.2684944,
"Poland","mazowieckie","Jadów",52.4901712,21.6226799,
"Poland","mazowieckie","Klembów",52.427416,21.3060362,
"Poland","mazowieckie","Poświętne",51.4783686,21.3671989,
"Poland","mazowieckie","Radzymin",52.4175467,21.1804029,
"Poland","mazowieckie","Strachówka",52.4011304,21.6206251,
"Poland","mazowieckie","Tłuszcz",52.42997,21.43511,
"Poland","mazowieckie","Wołomin",52.3391162,21.242318,
"Poland","mazowieckie","Milanówek",52.1185315,20.6716234,
"Poland","mazowieckie","Podkowa Leśna",52.1199928,20.7265083,
"Poland","mazowieckie","Baranów",51.2168403,21.7335372,
"Poland","mazowieckie","Grodzisk Mazowiecki",52.1044383,20.6350923,
"Poland","mazowieckie","Jaktorów",52.0727004,20.5203522,
"Poland","mazowieckie","Żabia Wola",52.0078021,20.6942335,
"Poland","mazowieckie","Belsk Duży",51.8253953,20.8092134,
"Poland","mazowieckie","Błędów",51.7924056,20.6643952,
"Poland","mazowieckie","Chynów",51.8909212,21.0863266,
"Poland","mazowieckie","Goszczyn",51.7303622,20.8520672,
"Poland","mazowieckie","Grójec",51.8655118,20.8666034,
"Poland","mazowieckie","Jasieniec",51.8139074,21.025291,
"Poland","mazowieckie","Mogielnica",51.6940669,20.7235402,
"Poland","mazowieckie","Nowe Miasto nad Pilicą",51.6175744,20.5766449,
"Poland","mazowieckie","Pniewy",51.9082813,20.7545765,
"Poland","mazowieckie","Tarczyn",51.97842,20.83374,
"Poland","mazowieckie","Warka",51.7840019,21.1909879,
"Poland","mazowieckie","Góra Kalwaria",51.976466,21.215337,
"Poland","mazowieckie","Konstancin-Jeziorna",52.0938717,21.117722,
"Poland","mazowieckie","Lesznowola",52.0891672,20.9137531,
"Poland","mazowieckie","Piaseczno",52.0811536,21.0238602,
"Poland","mazowieckie","Prażmów",51.958843,21.0189264,
"Poland","mazowieckie","Piastów",52.1845184,20.8400429,
"Poland","mazowieckie","Pruszków",52.1704725,20.8118862,
"Poland","mazowieckie","Brwinów",52.142598,20.7175048,
"Poland","mazowieckie","Michałowice",52.1447037,20.8532862,
"Poland","mazowieckie","Nadarzyn",52.0672357,20.7925004,
"Poland","mazowieckie","Raszyn",52.1537625,20.9200851,
"Poland","mazowieckie","Sochaczew",52.2293372,20.238359,
"Poland","mazowieckie","Brochów",52.339987,20.3286222,
"Poland","mazowieckie","Iłów",52.3441983,20.0555056,
"Poland","mazowieckie","Młodzieszyn",52.3226491,20.1771368,
"Poland","mazowieckie","Nowa Sucha",52.1520031,20.2024876,
"Poland","mazowieckie","Rybno",52.2320658,20.1256773,
"Poland","mazowieckie","Teresin",52.1887408,20.3682331,
"Poland","mazowieckie","Błonie",52.1985472,20.6169567,
"Poland","mazowieckie","Izabelin",52.3141061,20.7775175,
"Poland","mazowieckie","Kampinos",52.2681666,20.4632209,
"Poland","mazowieckie","Leszno",52.2578627,20.591183,
"Poland","mazowieckie","Łomianki",52.3336578,20.8869862,
"Poland","mazowieckie","Ożarów Mazowiecki",52.2103507,20.7972326,
"Poland","mazowieckie","Stare Babice",52.2640663,20.8079357,
"Poland","mazowieckie","Żyrardów",52.048652,20.445988,
"Poland","mazowieckie","Mszczonów",51.982047,20.5216182,
"Poland","mazowieckie","Puszcza Mariańska",51.9726002,20.3403653,
"Poland","mazowieckie","Radziejowice",52.0042409,20.5559904,
"Poland","mazowieckie","Wiskitki",52.083111,20.3863042,
"Poland","opolskie","Brzeg",50.8608509,17.4668311,
"Poland","opolskie","Skarbimierz",50.8481237,17.4362791,
"Poland","opolskie","Grodków",50.69625,17.38516,
"Poland","opolskie","Lewin Brzeski",50.74829,17.6188,
"Poland","opolskie","Lubsza",50.9265685,17.5437756,
"Poland","opolskie","Olszanka",50.7779528,17.4638662,
"Poland","opolskie","Byczyna",51.11327,18.21114,
"Poland","opolskie","Kluczbork",50.97235,18.21807,
"Poland","opolskie","Lasowice Wielkie",50.8694759,18.2267727,
"Poland","opolskie","Wołczyn",51.0184963,18.0515703,
"Poland","opolskie","Domaszowice",51.0424452,17.8888719,
"Poland","opolskie","Namysłów",51.07588,17.72244,
"Poland","opolskie","Pokój",50.9205054,17.8579235,
"Poland","opolskie","Świerczów",50.9656667,17.7759688,
"Poland","opolskie","Wilków",51.1016535,17.6617492,
"Poland","opolskie","Głuchołazy",50.31512,17.38347,
"Poland","opolskie","Kamiennik",50.5702492,17.143637,
"Poland","opolskie","Korfantów",50.4888579,17.5989754,
"Poland","opolskie","Łambinowice",50.538452,17.5596274,
"Poland","opolskie","Nysa",50.4822855,17.3295861,
"Poland","opolskie","Otmuchów",50.4660686,17.1733617,
"Poland","opolskie","Paczków",50.4635646,17.0057256,
"Poland","opolskie","Pakosławice",50.5442414,17.3145765,
"Poland","opolskie","Skoroszyce",50.5982316,17.3802606,
"Poland","opolskie","Biała",50.3862574,17.6604283,
"Poland","opolskie","Głogówek",50.35349,17.86435,
"Poland","opolskie","Lubrza",50.3359074,17.6264065,
"Poland","opolskie","Prudnik",50.3206779,17.5742264,
"Poland","opolskie","Baborów",50.1575901,17.9852459,
"Poland","opolskie","Branice",50.0506869,17.792043,
"Poland","opolskie","Głubczyce",50.20027,17.8287,
"Poland","opolskie","Kietrz",50.08005,18.00413,
"Poland","opolskie","Kędzierzyn-Koźle",50.3498805,18.2261844,
"Poland","opolskie","Bierawa",50.2801801,18.2414528,
"Poland","opolskie","Cisek",50.2812772,18.2011008,
"Poland","opolskie","Pawłowiczki",50.2461852,18.0486064,
"Poland","opolskie","Polska Cerekiew",50.2277372,18.1267352,
"Poland","opolskie","Reńska Wieś",50.3373414,18.0902218,
"Poland","opolskie","Gogolin",50.4919804,18.0199044,
"Poland","opolskie","Krapkowice",50.4745052,17.9651385,
"Poland","opolskie","Strzeleczki",50.4570585,17.8071577,
"Poland","opolskie","Walce",50.3941501,18.0018757,
"Poland","opolskie","Zdzieszowice",50.42422,18.12477,
"Poland","opolskie","Dobrodzień",50.72875,18.44502,
"Poland","opolskie","Gorzów Śląski",51.0279541,18.4228919,
"Poland","opolskie","Olesno",50.87526,18.41472,
"Poland","opolskie","Praszka",51.05359,18.4535,
"Poland","opolskie","Radłów",50.9440581,18.515435,
"Poland","opolskie","Rudniki",51.0121022,18.6268499,
"Poland","opolskie","Zębowice",50.7716903,18.3178402,
"Poland","opolskie","Chrząstowice",50.6592663,18.0829221,
"Poland","opolskie","Dąbrowa",50.7168138,17.7877661,
"Poland","opolskie","Dobrzeń Wielki",50.7668769,17.844385,
"Poland","opolskie","Komprachcice",50.629311,17.8332763,
"Poland","opolskie","Łubniany",50.7986433,18.0164688,
"Poland","opolskie","Murów",50.8619291,17.9460201,
"Poland","opolskie","Niemodlin",50.6422,17.61989,
"Poland","opolskie","Ozimek",50.6787,18.21379,
"Poland","opolskie","Popielów",50.8224645,17.7398671,
"Poland","opolskie","Prószków",50.5766701,17.8714049,
"Poland","opolskie","Tarnów Opolski",50.5716269,18.0822611,
"Poland","opolskie","Tułowice",50.595453,17.653119,
"Poland","opolskie","Turawa",50.7488012,18.1267296,
"Poland","opolskie","Izbicko",50.5715496,18.1546193,
"Poland","opolskie","Jemielnica",50.5768938,18.3936576,
"Poland","opolskie","Kolonowskie",50.6532734,18.38426,
"Poland","opolskie","Leśnica",50.4305778,18.1872243,
"Poland","opolskie","Strzelce Opolskie",50.51092,18.29987,
"Poland","opolskie","Ujazd",50.3888097,18.3476407,
"Poland","opolskie","Zawadzkie",50.60435,18.48514,
"Poland","opolskie","Opole",50.6751067,17.9212976,
"Poland","podkarpackie","Baligród",49.3357569,22.2868645,
"Poland","podkarpackie","Cisna",49.2112335,22.3285103,
"Poland","podkarpackie","Czarna",49.3338378,22.5870848,
"Poland","podkarpackie","Lesko",49.4701205,22.3304324,
"Poland","podkarpackie","Lutowiska",49.2513639,22.6952648,
"Poland","podkarpackie","Olszanica",49.477731,22.4588916,
"Poland","podkarpackie","Solina",49.3685801,22.4173989,
"Poland","podkarpackie","Ustrzyki Dolne",49.4303242,22.5942366,
"Poland","podkarpackie","Brzozów",49.69427,22.01936,
"Poland","podkarpackie","Domaradz",49.7942008,21.9483158,
"Poland","podkarpackie","Dydnia",49.680441,22.1456675,
"Poland","podkarpackie","Haczów",49.6675983,21.8906138,
"Poland","podkarpackie","Jasienica Rosielna",49.7511863,21.9421458,
"Poland","podkarpackie","Nozdrzec",49.7534799,22.1560721,
"Poland","podkarpackie","Jasło",49.7445663,21.4722875,
"Poland","podkarpackie","Brzyska",49.8199537,21.3826319,
"Poland","podkarpackie","Dębowiec",49.6827011,21.4604016,
"Poland","podkarpackie","Kołaczyce",49.8073734,21.4331923,
"Poland","podkarpackie","Krempna",49.5109776,21.500415,
"Poland","podkarpackie","Nowy Żmigród",49.6035205,21.5236701,
"Poland","podkarpackie","Osiek Jasielski",49.6145537,21.4490777,
"Poland","podkarpackie","Skołyszyn",49.7497258,21.3345594,
"Poland","podkarpackie","Szerzyny",49.809006,21.245283,
"Poland","podkarpackie","Tarnowiec",49.7306956,21.5766828,
"Poland","podkarpackie","Chorkówka",49.6423706,21.6354296,
"Poland","podkarpackie","Dukla",49.5555137,21.6832308,
"Poland","podkarpackie","Iwonicz-Zdrój",49.5631235,21.7899388,
"Poland","podkarpackie","Jedlicze",49.71749,21.64896,
"Poland","podkarpackie","Korczyna",49.7153523,21.8093835,
"Poland","podkarpackie","Krościenko Wyżne",49.6809484,21.8103984,
"Poland","podkarpackie","Miejsce Piastowe",49.6385152,21.7640067,
"Poland","podkarpackie","Rymanów",49.5671778,21.8544528,
"Poland","podkarpackie","Wojaszówka",49.7774163,21.7112659,
"Poland","podkarpackie","Sanok",49.5550187,22.2060658,
"Poland","podkarpackie","Besko",49.5878927,21.9513346,
"Poland","podkarpackie","Bukowsko",49.4798845,22.0616032,
"Poland","podkarpackie","Komańcza",49.3368124,22.0702028,
"Poland","podkarpackie","Tyrawa Wołoska",49.5773435,22.3696965,
"Poland","podkarpackie","Zagórz",49.5143,22.26707,
"Poland","podkarpackie","Zarszyn",49.5693954,22.0047221,
"Poland","podkarpackie","Krosno",49.6824761,21.7660531,
"Poland","podkarpackie","Jarosław",50.0161463,22.6777169,
"Poland","podkarpackie","Radymno",49.94712,22.82395,
"Poland","podkarpackie","Chłopice",49.9411704,22.7157349,
"Poland","podkarpackie","Laszki",50.0194319,22.895422,
"Poland","podkarpackie","Pawłosiów",50.007551,22.6030947,
"Poland","podkarpackie","Pruchnik",49.9061322,22.5155104,
"Poland","podkarpackie","Rokietnica",49.8979566,22.6428983,
"Poland","podkarpackie","Roźwienica",49.9648175,22.6007278,
"Poland","podkarpackie","Wiązownica",50.0780482,22.7069899,
"Poland","podkarpackie","Lubaczów",50.15621,23.12379,
"Poland","podkarpackie","Cieszanów",50.2447893,23.1306266,
"Poland","podkarpackie","Horyniec",50.248211,23.373527,
"Poland","podkarpackie","Narol",50.3490504,23.3268124,
"Poland","podkarpackie","Oleszyce",50.1676885,23.034997,
"Poland","podkarpackie","Stary Dzików",50.2472724,22.9297328,
"Poland","podkarpackie","Wielkie Oczy",50.0235198,23.1640425,
"Poland","podkarpackie","Bircza",49.6923166,22.4858847,
"Poland","podkarpackie","Dubiecko",49.8279218,22.3924149,
"Poland","podkarpackie","Fredropol",49.6935912,22.7464199,
"Poland","podkarpackie","Krasiczyn",49.745756,22.617492,
"Poland","podkarpackie","Krzywcza",49.7982591,22.5451123,
"Poland","podkarpackie","Medyka",49.8049161,22.9345026,
"Poland","podkarpackie","Orły",49.8806897,22.7993714,
"Poland","podkarpackie","Przemyśl",49.7838623,22.7677908,
"Poland","podkarpackie","Stubno",49.8989379,22.9553047,
"Poland","podkarpackie","Żurawica",49.8234295,22.7888958,
"Poland","podkarpackie","Przeworsk",50.0587,22.49377,
"Poland","podkarpackie","Adamówka",50.2589897,22.6976335,
"Poland","podkarpackie","Gać",50.0301895,22.3860632,
"Poland","podkarpackie","Jawornik Polski",49.9136237,22.3223284,
"Poland","podkarpackie","Kańczuga",49.9833529,22.4116071,
"Poland","podkarpackie","Sieniawa",50.177791,22.6095389,
"Poland","podkarpackie","Tryńcza",50.132432,22.5479438,
"Poland","podkarpackie","Zarzecze",50.5231964,22.2055931,
"Poland","podkarpackie","Cmolas",50.3211444,21.6848149,
"Poland","podkarpackie","Kolbuszowa",50.24417,21.77627,
"Poland","podkarpackie","Majdan Królewski",50.3845248,21.803437,
"Poland","podkarpackie","Niwiska",50.2245903,21.6287109,
"Poland","podkarpackie","Raniżów",50.2677408,21.9619305,
"Poland","podkarpackie","Dzikowiec",50.2726913,21.8441771,
"Poland","podkarpackie","Łańcut",50.06824,22.2298,
"Poland","podkarpackie","Białobrzegi",50.103151,22.3459835,
"Poland","podkarpackie","Markowa",50.0221813,22.3113814,
"Poland","podkarpackie","Rakszawa",50.1602886,22.2388242,
"Poland","podkarpackie","Żołynia",50.1633219,22.3095775,
"Poland","podkarpackie","Iwierzyce",50.0287787,21.7557084,
"Poland","podkarpackie","Ostrów",50.0986441,21.5932472,
"Poland","podkarpackie","Ropczyce",50.05228,21.60887,
"Poland","podkarpackie","Sędziszów Małopolski",50.07097,21.70191,
"Poland","podkarpackie","Wielopole Skrzyńskie",49.9461042,21.6149951,
"Poland","podkarpackie","Dynów",49.81506,22.23388,
"Poland","podkarpackie","Błażowa",49.8856487,22.1027541,
"Poland","podkarpackie","Boguchwała",49.9846987,21.9450839,
"Poland","podkarpackie","Chmielnik",49.9667879,22.1654349,
"Poland","podkarpackie","Głogów Małopolski",50.1512,21.96286,
"Poland","podkarpackie","Hyżne",49.9230337,22.1652611,
"Poland","podkarpackie","Kamień",50.3213278,22.1224081,
"Poland","podkarpackie","Krasne",50.0453357,22.0963174,
"Poland","podkarpackie","Lubenia",49.9214247,21.9610919,
"Poland","podkarpackie","Sokołów Małopolski",50.22904,22.11964,
"Poland","podkarpackie","Świlcza",50.0789426,21.8729088,
"Poland","podkarpackie","Trzebownisko",50.0778422,22.0395662,
"Poland","podkarpackie","Tyczyn",49.9638636,22.0339385,
"Poland","podkarpackie","Czudec",49.9454719,21.8376406,
"Poland","podkarpackie","Frysztak",49.8409644,21.6104056,
"Poland","podkarpackie","Niebylec",49.8417334,21.9292091,
"Poland","podkarpackie","Strzyżów",49.87047,21.79386,
"Poland","podkarpackie","Wiśniowa",49.8924782,21.6717673,
"Poland","podkarpackie","Rzeszów",50.0411867,21.9991196,200000
"Poland","podkarpackie","Dębica",50.0516417,21.4116964,
"Poland","podkarpackie","Brzostek",49.8794493,21.4111386,
"Poland","podkarpackie","Jodłowa",49.871683,21.2780491,
"Poland","podkarpackie","Pilzno",49.97976,21.29492,
"Poland","podkarpackie","Żyraków",50.1193914,21.3895128,
"Poland","podkarpackie","Leżajsk",50.2620534,22.4210807,
"Poland","podkarpackie","Grodzisko Dolne",50.1578027,22.4665644,
"Poland","podkarpackie","Kuryłówka",50.2946077,22.5236464,
"Poland","podkarpackie","Nowa Sarzyna",50.32035,22.3446,
"Poland","podkarpackie","Mielec",50.287063,21.4238101,
"Poland","podkarpackie","Borowa",50.3884192,21.3373841,
"Poland","podkarpackie","Czermin",50.339021,21.3337019,
"Poland","podkarpackie","Gawłuszowice",50.4132053,21.3827521,
"Poland","podkarpackie","Padew Narodowa",50.4411071,21.5133015,
"Poland","podkarpackie","Przecław",50.1933744,21.4800673,
"Poland","podkarpackie","Radomyśl Wielki",50.1968867,21.2769048,
"Poland","podkarpackie","Tuszów Narodowy",50.3736573,21.5261533,
"Poland","podkarpackie","Wadowice Górne",50.2585005,21.2966667,
"Poland","podkarpackie","Harasiuki",50.4908322,22.4676693,
"Poland","podkarpackie","Jarocin",50.5707701,22.3054924,
"Poland","podkarpackie","Jeżowe",50.3750745,22.1274631,
"Poland","podkarpackie","Krzeszów",50.403539,22.3424857,
"Poland","podkarpackie","Nisko",50.52001,22.13955,
"Poland","podkarpackie","Rudnik nad Sanem",50.44324,22.24879,
"Poland","podkarpackie","Ulanów",50.4902323,22.2636037,
"Poland","podkarpackie","Stalowa Wola",50.5826005,22.053586,
"Poland","podkarpackie","Bojanów",50.4251941,21.9511821,
"Poland","podkarpackie","Pysznica",50.5743337,22.1244294,
"Poland","podkarpackie","Radomyśl nad Sanem",50.7192894,21.9249615,
"Poland","podkarpackie","Zaklików",50.7577772,22.1021741,
"Poland","podkarpackie","Zaleszany",50.6496313,21.8952203,
"Poland","podkarpackie","Baranów Sandomierski",50.498985,21.5417402,
"Poland","podkarpackie","Gorzyce",50.6669191,21.8403117,
"Poland","podkarpackie","Grębów",50.5653802,21.8743681,
"Poland","podkarpackie","Nowa Dęba",50.4634032,21.7329265,
"Poland","podkarpackie","Tarnobrzeg",50.5729079,21.6790698,
"Poland","podkarpackie","Jasionka",50.116562,22.05798,
"Poland","podlaskie","Choroszcz",53.14292,22.98815,
"Poland","podlaskie","Czarna Białostocka",53.30215,23.28784,
"Poland","podlaskie","Dobrzyniewo Duże",53.2237295,22.9924384,
"Poland","podlaskie","Gródek",53.1320562,23.6558145,
"Poland","podlaskie","Juchnowiec Kościelny",52.9672857,23.1354159,
"Poland","podlaskie","Łapy",52.9912947,22.8843128,
"Poland","podlaskie","Michałowo",53.0329376,23.6062185,
"Poland","podlaskie","Poświętne",52.9030431,22.8393868,
"Poland","podlaskie","Supraśl",53.2049014,23.3393564,
"Poland","podlaskie","Suraż",52.9490114,22.9564233,
"Poland","podlaskie","Turośń Kościelna",53.015132,23.0549051,
"Poland","podlaskie","Tykocin",53.2062669,22.7740605,
"Poland","podlaskie","Wasilków",53.1986,23.20779,
"Poland","podlaskie","Zabłudów",53.0140919,23.3383287,
"Poland","podlaskie","Zawady",53.1561272,22.6623843,
"Poland","podlaskie","Dąbrowa Białostocka",53.653655,23.3479762,
"Poland","podlaskie","Janów",52.1939792,23.2121137,
"Poland","podlaskie","Korycin",53.4360068,23.1251675,
"Poland","podlaskie","Krynki",53.2639896,23.7725,
"Poland","podlaskie","Kuźnica",53.5106708,23.6492992,
"Poland","podlaskie","Nowy Dwór",53.631131,23.5438469,
"Poland","podlaskie","Sidra",53.5519734,23.4487884,
"Poland","podlaskie","Sokółka",53.4061597,23.5030235,
"Poland","podlaskie","Suchowola",53.5776262,23.1058028,
"Poland","podlaskie","Szudziałowo",53.2734047,23.6347653,
"Poland","podlaskie","Białystok",53.1324886,23.1688403,290000
"Poland","podlaskie","Bielsk Podlaski",52.7650576,23.1867524,
"Poland","podlaskie","Brańsk",52.7433639,22.8413044,
"Poland","podlaskie","Boćki",52.6515392,23.0446709,
"Poland","podlaskie","Orla",52.7057788,23.3322603,
"Poland","podlaskie","Rudka",52.7238511,22.7196813,
"Poland","podlaskie","Wyszki",52.864932,22.9711686,
"Poland","podlaskie","Hajnówka",52.74514,23.58165,
"Poland","podlaskie","Białowieża",52.7228852,23.6555674,
"Poland","podlaskie","Czeremcha",52.5139674,23.3517478,
"Poland","podlaskie","Czyże",52.8069317,23.417075,
"Poland","podlaskie","Dubicze Cerkiewne",52.6493697,23.442523,
"Poland","podlaskie","Kleszczele",52.5726288,23.3252269,
"Poland","podlaskie","Narew",52.914745,23.5203912,
"Poland","podlaskie","Narewka",52.8325137,23.7627451,
"Poland","podlaskie","Kolno",53.4077753,21.9326486,
"Poland","podlaskie","Grabowo",53.4651261,22.1537262,
"Poland","podlaskie","Mały Płock",53.2951032,22.0038289,
"Poland","podlaskie","Stawiski",53.3798875,22.1546049,
"Poland","podlaskie","Turośl",53.3877801,21.7277154,
"Poland","podlaskie","Jedwabne",53.2852876,22.2999336,
"Poland","podlaskie","Łomża",53.1781197,22.0590321,
"Poland","podlaskie","Miastkowo",53.1385789,21.8178871,
"Poland","podlaskie","Nowogród",53.226552,21.8790209,
"Poland","podlaskie","Piątnica",53.1952003,22.0955446,
"Poland","podlaskie","Przytuły",53.3676452,22.3097628,
"Poland","podlaskie","Śniadowo",53.0382065,21.9907814,
"Poland","podlaskie","Wizna",53.1944253,22.3821445,
"Poland","podlaskie","Zbójna",53.2427551,21.7884615,
"Poland","podlaskie","Siemiatycze",52.42732,22.86373,
"Poland","podlaskie","Drohiczyn",52.4003253,22.6585778,
"Poland","podlaskie","Dziadkowice",52.5652013,22.9056677,
"Poland","podlaskie","Grodzisk",52.5839082,22.7378755,
"Poland","podlaskie","Mielnik",52.331084,23.0459634,
"Poland","podlaskie","Milejczyce",52.5196136,23.132084,
"Poland","podlaskie","Nurzec",52.8058,23.2917,
"Poland","podlaskie","Perlejewo",52.5688033,22.562647,
"Poland","podlaskie","Wysokie Mazowieckie",52.9148,22.51003,
"Poland","podlaskie","Ciechanowiec",52.6782617,22.4981661,
"Poland","podlaskie","Czyżew",52.7975103,22.312295,
"Poland","podlaskie","Klukowo",52.761226,22.5335863,
"Poland","podlaskie","Kobylin",53.2935062,22.1457348,
"Poland","podlaskie","Kulesze Kościelne",53.01498,22.5050787,
"Poland","podlaskie","Nowe Piekuty",52.8769692,22.6884104,
"Poland","podlaskie","Sokoły",52.9930762,22.6996058,
"Poland","podlaskie","Szepietowo",52.870314,22.5438702,
"Poland","podlaskie","Zambrów",52.9849941,22.2413857,
"Poland","podlaskie","Kołaki Kościelne",53.0214711,22.376844,
"Poland","podlaskie","Rutki",53.2173737,22.3472014,
"Poland","podlaskie","Szumowo",52.8985534,22.1242745,
"Poland","podlaskie","Augustów",53.8434431,22.9796023,
"Poland","podlaskie","Bargłów Kościelny",53.7730593,22.8223891,
"Poland","podlaskie","Lipsk",53.7370364,23.3921628,
"Poland","podlaskie","Nowinka",53.9468485,23.0351482,
"Poland","podlaskie","Płaska",53.9034163,23.2521708,
"Poland","podlaskie","Sztabin",53.6844982,23.0983189,
"Poland","podlaskie","Grajewo",53.6471559,22.455217,
"Poland","podlaskie","Radziłów",53.4103668,22.408836,
"Poland","podlaskie","Rajgród",53.7309754,22.7049936,
"Poland","podlaskie","Szczuczyn",53.5630405,22.2855473,
"Poland","podlaskie","Wąsosz",53.5219052,22.3196277,
"Poland","podlaskie","Goniądz",53.4897551,22.735111,
"Poland","podlaskie","Jasionówka",53.3845167,23.0419387,
"Poland","podlaskie","Jaświły",53.5068977,22.9450197,
"Poland","podlaskie","Knyszyn",53.3126826,22.9196898,
"Poland","podlaskie","Krypno",53.2619682,22.8036112,
"Poland","podlaskie","Mońki",53.40491,22.79712,
"Poland","podlaskie","Trzcianne",53.3437416,22.6815863,
"Poland","podlaskie","Sejny",54.10809,23.3469,
"Poland","podlaskie","Giby",54.0422463,23.3560871,
"Poland","podlaskie","Krasnopol",54.1161771,23.206557,
"Poland","podlaskie","Puńsk",54.251638,23.1797383,
"Poland","podlaskie","Bakałarzewo",54.0935272,22.6519282,
"Poland","podlaskie","Filipów",54.1804047,22.6207739,
"Poland","podlaskie","Jeleniewo",54.2037847,22.9126128,
"Poland","podlaskie","Przerośl",54.2533084,22.6593392,
"Poland","podlaskie","Raczki",53.9888675,22.7829093,
"Poland","podlaskie","Rutka",54.2149906,22.8369613,
"Poland","podlaskie","Suwałki",54.1115218,22.9307881,
"Poland","podlaskie","Szypliszki",54.2198852,23.0512211,
"Poland","podlaskie","Wiżajny",54.3501992,22.8618559,
"Poland","pomorskie","Pruszcz Gdański",54.2621505,18.6361726,
"Poland","pomorskie","Cedry Wielkie",54.2490828,18.8664712,
"Poland","pomorskie","Kolbudy",54.2774456,18.4775168,
"Poland","pomorskie","Przywidz",54.1949744,18.3202769,
"Poland","pomorskie","Pszczółki",54.1728282,18.697867,
"Poland","pomorskie","Suchy Dąb",54.2061218,18.7821438,
"Poland","pomorskie","Trąbki Wielkie",54.1682496,18.5245156,
"Poland","pomorskie","Chmielno",54.3248344,18.0992148,
"Poland","pomorskie","Kartuzy",54.3343,18.1972,
"Poland","pomorskie","Przodkowo",54.3914983,18.2559088,
"Poland","pomorskie","Sierakowice",54.3590837,17.8801232,
"Poland","pomorskie","Somonino",54.2746723,18.1984681,
"Poland","pomorskie","Stężyca",54.2577807,17.951755,
"Poland","pomorskie","Sulęczyno",54.2317091,17.7717438,
"Poland","pomorskie","Żukowo",54.3420055,18.3650381,
"Poland","pomorskie","Krynica Morska",54.3799913,19.4441407,
"Poland","pomorskie","Nowy Dwór Gdański",54.20801,19.11753,
"Poland","pomorskie","Ostaszewo",54.2207765,18.9709477,
"Poland","pomorskie","Stegna",54.3263367,19.1123089,
"Poland","pomorskie","Sztutowo",54.3260845,19.1790706,
"Poland","pomorskie","Hel",54.6083804,18.8007998,
"Poland","pomorskie","Jastarnia",54.6957333,18.6788396,
"Poland","pomorskie","Puck",54.7180477,18.4086339,
"Poland","pomorskie","Władysławowo",54.79074,18.403,
"Poland","pomorskie","Kosakowo",54.5933251,18.4867829,
"Poland","pomorskie","Krokowa",54.7689812,18.1624098,
"Poland","pomorskie","Reda",54.6053867,18.3471836,
"Poland","pomorskie","Rumia",54.5707832,18.3878224,
"Poland","pomorskie","Wejherowo",54.6003216,18.2330487,
"Poland","pomorskie","Choczewo",54.7675079,17.8755529,
"Poland","pomorskie","Gniewino",54.6968316,18.0409001,
"Poland","pomorskie","Linia",54.4692286,17.9730685,
"Poland","pomorskie","Luzino",54.5660207,18.1037551,
"Poland","pomorskie","Łęczyce",54.5835442,17.891935,
"Poland","pomorskie","Szemud",54.4868002,18.2202834,
"Poland","pomorskie","Borzytuchom",54.2003795,17.3683821,
"Poland","pomorskie","Bytów",54.1706219,17.4916088,
"Poland","pomorskie","Czarna Dąbrówka",54.34101,17.5518918,
"Poland","pomorskie","Kołczygłowy",54.2388118,17.2312846,
"Poland","pomorskie","Lipnica",53.9881559,17.3529435,
"Poland","pomorskie","Miastko",54.0026,16.98265,
"Poland","pomorskie","Parchowo",54.2064439,17.6677766,
"Poland","pomorskie","Studzienice",54.0998194,17.5828365,
"Poland","pomorskie","Trzebielino",54.2078371,17.0814082,
"Poland","pomorskie","Tuchomie",54.1152557,17.3367473,
"Poland","pomorskie","Chojnice",53.6944002,17.5569252,
"Poland","pomorskie","Brusy",53.88655,17.71915,
"Poland","pomorskie","Czersk",53.7950936,17.9763977,
"Poland","pomorskie","Konarzyny",53.9665725,18.0895959,
"Poland","pomorskie","Człuchów",53.6671796,17.359013,
"Poland","pomorskie","Czarne",53.6840759,16.9383968,
"Poland","pomorskie","Debrzno",53.5380522,17.2364118,
"Poland","pomorskie","Koczała",53.9044739,17.0664112,
"Poland","pomorskie","Przechlewo",53.8006292,17.2528973,
"Poland","pomorskie","Rzeczenica",53.7577169,17.1077021,
"Poland","pomorskie","Lębork",54.544642,17.7532511,
"Poland","pomorskie","Łeba",54.760117,17.5563117,
"Poland","pomorskie","Cewice",54.4291584,17.7163946,
"Poland","pomorskie","Nowa Wieś Lęborska",54.5716392,17.6715048,
"Poland","pomorskie","Wicko",54.6702591,17.6168478,
"Poland","pomorskie","Ustka",54.5805607,16.861891,
"Poland","pomorskie","Damnica",54.4957982,17.2693383,
"Poland","pomorskie","Dębnica Kaszubska",54.3786241,17.1607682,
"Poland","pomorskie","Główczyce",54.6194332,17.3683474,
"Poland","pomorskie","Kępice",54.24052,16.88967,
"Poland","pomorskie","Kobylnica",54.4405652,16.9983887,
"Poland","pomorskie","Potęgowo",54.4674702,17.460911,
"Poland","pomorskie","Słupsk",54.464148,17.0284824,
"Poland","pomorskie","Smołdzino",54.6795218,17.2498021,
"Poland","pomorskie","Kościerzyna",54.1222457,17.9812605,
"Poland","pomorskie","Dziemiany",54.0058465,17.7763729,
"Poland","pomorskie","Karsin",53.8961626,17.9238714,
"Poland","pomorskie","Liniewo",54.076385,18.2486082,
"Poland","pomorskie","Lipusz",54.0984859,17.7835592,
"Poland","pomorskie","Nowa Karczma",54.1446018,18.1728263,
"Poland","pomorskie","Stara Kiszewa",54.0049387,18.1290817,
"Poland","pomorskie","Kwidzyn",53.7263529,18.9323043,
"Poland","pomorskie","Gardeja",53.6108875,18.9465992,
"Poland","pomorskie","Prabuty",53.7558642,19.2045339,
"Poland","pomorskie","Ryjewo",53.8446847,18.9605242,
"Poland","pomorskie","Sadlinki",53.6620073,18.8692726,
"Poland","pomorskie","Malbork",54.0361319,19.0379763,
"Poland","pomorskie","Dzierzgoń",53.92148,19.34723,
"Poland","pomorskie","Lichnowy",54.1068265,18.9063861,
"Poland","pomorskie","Mikołajki Pomorskie",53.8522152,19.1666459,
"Poland","pomorskie","Miłoradz",54.0139321,18.9182622,
"Poland","pomorskie","Nowy Staw",54.13607,19.00874,
"Poland","pomorskie","Stare Pole",54.0542472,19.2011777,
"Poland","pomorskie","Stary Dzierzgoń",53.8413512,19.4048708,
"Poland","pomorskie","Stary Targ",53.9739174,19.1655285,
"Poland","pomorskie","Sztum",53.9208518,19.0295929,
"Poland","pomorskie","Czarna Woda",53.84455,18.09998,
"Poland","pomorskie","Skórcz",53.7937151,18.5248959,
"Poland","pomorskie","Starogard Gdański",53.965614,18.5162736,
"Poland","pomorskie","Bobowo",53.8844513,18.5566877,
"Poland","pomorskie","Kaliska",53.9039711,18.1993199,
"Poland","pomorskie","Lubichowo",53.8514527,18.3991666,
"Poland","pomorskie","Osieczna",53.7801153,18.2010168,
"Poland","pomorskie","Osiek",53.7202123,18.4382062,
"Poland","pomorskie","Skarszewy",54.06907,18.44421,
"Poland","pomorskie","Smętowo Graniczne",53.7431909,18.6894607,
"Poland","pomorskie","Zblewo",53.936,18.3177309,
"Poland","pomorskie","Tczew",54.0919269,18.7773072,
"Poland","pomorskie","Gniew",53.83546,18.82249,
"Poland","pomorskie","Morzeszczyn",53.8415277,18.6636599,
"Poland","pomorskie","Pelplin",53.9283135,18.6979422,
"Poland","pomorskie","Subkowy",54.0032706,18.778828,
"Poland","pomorskie","Gdańsk",54.3520252,18.6466384,460000
"Poland","pomorskie","Gdynia",54.5188898,18.5305409,250000
"Poland","pomorskie","Sopot",54.441581,18.5600956,
"Poland","śląskie","Szczyrk",49.7150006,19.0235999,
"Poland","śląskie","Bestwina",49.9009998,19.0554096,
"Poland","śląskie","Buczkowice",49.7285832,19.0692075,
"Poland","śląskie","Czechowice-Dziedzice",49.9016056,18.9917676,
"Poland","śląskie","Jasienica",49.81212,18.9222972,
"Poland","śląskie","Jaworze",49.7919321,18.9476275,
"Poland","śląskie","Kozy",49.8437688,19.1418119,
"Poland","śląskie","Porąbka",49.8170828,19.2176348,
"Poland","śląskie","Wilamowice",49.9166289,19.1520875,
"Poland","śląskie","Wilkowice",49.7631724,19.1167175,
"Poland","śląskie","Cieszyn",49.7497638,18.6354709,
"Poland","śląskie","Ustroń",49.719657,18.8120576,
"Poland","śląskie","Wisła",49.6473215,18.867739,
"Poland","śląskie","Brenna",49.7184394,18.9436714,
"Poland","śląskie","Chybie",49.9000179,18.8414567,
"Poland","śląskie","Dębowiec",49.8134941,18.7202795,
"Poland","śląskie","Goleszów",49.7350685,18.7364724,
"Poland","śląskie","Hażlach",49.7967297,18.6369018,
"Poland","śląskie","Istebna",49.563977,18.8935173,
"Poland","śląskie","Skoczów",49.8031512,18.790762,
"Poland","śląskie","Strumień",49.9168442,18.7639257,
"Poland","śląskie","Zebrzydowice",49.8777353,18.6111048,
"Poland","śląskie","Żywiec",49.6912999,19.1823983,
"Poland","śląskie","Czernichów",49.7548995,19.2036832,
"Poland","śląskie","Gilowice",49.7122409,19.3085572,
"Poland","śląskie","Jeleśnia",49.6356548,19.3344174,
"Poland","śląskie","Koszarawa",49.6436584,19.4004711,
"Poland","śląskie","Lipowa",49.6685639,19.0503591,
"Poland","śląskie","Łękawica",49.7530269,19.2992416,
"Poland","śląskie","Łodygowice",49.7302193,19.1406482,
"Poland","śląskie","Milówka",49.5593676,19.086865,
"Poland","śląskie","Radziechowy",49.6462501,19.1309913,
"Poland","śląskie","Rajcza",49.5139337,19.118131,
"Poland","śląskie","Ślemień",49.7176815,19.3674131,
"Poland","śląskie","Świnna",49.6537317,19.2604356,
"Poland","śląskie","Ujsoły",49.4345565,19.1216343,
"Poland","śląskie","Węgierska Górka",49.606601,19.1163069,
"Poland","śląskie","Bielsko-Biała",49.8223768,19.0583845,
"Poland","śląskie","Lubliniec",50.6687353,18.6846192,
"Poland","śląskie","Boronów",50.6742395,18.90676,
"Poland","śląskie","Ciasna",50.7542407,18.608683,
"Poland","śląskie","Herby",50.7478709,18.8783173,
"Poland","śląskie","Kochanowice",50.7246691,18.7351952,
"Poland","śląskie","Koszęcin",50.6377774,18.8409208,
"Poland","śląskie","Pawonków",50.6738375,18.5876821,
"Poland","śląskie","Woźniki",50.58846,19.06019,
"Poland","śląskie","Kalety",50.56501,18.88256,
"Poland","śląskie","Miasteczko Śląskie",50.5018744,18.9394888,
"Poland","śląskie","Radzionków",50.3998141,18.9017625,
"Poland","śląskie","Tarnowskie Góry",50.4359468,18.8460247,
"Poland","śląskie","Krupski Młyn",50.5734572,18.6233551,
"Poland","śląskie","Ożarowice",50.4614333,19.0428325,
"Poland","śląskie","Świerklaniec",50.4359088,18.9462071,
"Poland","śląskie","Tworóg",50.5201113,18.7382151,
"Poland","śląskie","Zbrosławice",50.39529,18.7159469,
"Poland","śląskie","Bytom",50.3483816,18.9157175,
"Poland","śląskie","Piekary Śląskie",50.3789108,18.9270475,
"Poland","śląskie","Blachownia",50.361829,18.2787817,
"Poland","śląskie","Dąbrowa Zielona",50.8543648,19.558154,
"Poland","śląskie","Janów",50.7492302,19.4168061,
"Poland","śląskie","Kamienica Polska",50.6794453,19.1638197,
"Poland","śląskie","Kłomnice",50.8967201,19.375871,
"Poland","śląskie","Koniecpol",50.77414,19.68924,
"Poland","śląskie","Konopiska",50.7245067,18.9932795,
"Poland","śląskie","Kruszyna",50.9669699,19.2772699,
"Poland","śląskie","Lelów",50.6967833,19.6563574,
"Poland","śląskie","Mstów",50.8076486,19.3283072,
"Poland","śląskie","Mykanów",50.9244259,19.1506638,
"Poland","śląskie","Olsztyn",50.7307658,19.273346,
"Poland","śląskie","Poczesna",50.7241612,19.1225662,
"Poland","śląskie","Przyrów",50.7896861,19.4949478,
"Poland","śląskie","Rędziny",50.8781619,19.2319208,
"Poland","śląskie","Starcza",50.6660624,19.0088487,
"Poland","śląskie","Kłobuck",50.9009168,18.9367931,
"Poland","śląskie","Krzepice",50.969668,18.7293002,
"Poland","śląskie","Lipie",50.672222,18.647222,
"Poland","śląskie","Miedźno",50.9926165,19.0032418,
"Poland","śląskie","Opatów",50.9347704,18.8326369,
"Poland","śląskie","Panki",50.8936635,18.7554427,
"Poland","śląskie","Popów",51.0416804,18.9393004,
"Poland","śląskie","Przystajń",50.8848963,18.6915928,
"Poland","śląskie","Wręczyca Wielka",50.8458625,18.9207389,
"Poland","śląskie","Myszków",50.5706845,19.3144637,
"Poland","śląskie","Koziegłowy",50.59991,19.16304,
"Poland","śląskie","Niegowa",50.6524723,19.4774233,
"Poland","śląskie","Poraj",50.6610707,19.2399064,
"Poland","śląskie","Żarki",50.62508,19.36332,
"Poland","śląskie","Częstochowa",50.8118195,19.1203094,220000
"Poland","śląskie","Knurów",50.2219315,18.6706468,
"Poland","śląskie","Pyskowice",50.3955793,18.6346378,
"Poland","śląskie","Gierałtowice",50.2301286,18.7452459,
"Poland","śląskie","Pilchowice",50.2035399,18.584265,
"Poland","śląskie","Rudziniec",50.3946477,18.460875,
"Poland","śląskie","Sośnicowice",50.2718641,18.5286275,
"Poland","śląskie","Toszek",50.4542102,18.522454,
"Poland","śląskie","Wielowieś",50.5006679,18.5969313,
"Poland","śląskie","Gliwice",50.2944923,18.6713802,
"Poland","śląskie","Zabrze",50.3249278,18.7857186,
"Poland","śląskie","Chorzów",50.2974884,18.9545728,
"Poland","śląskie","Katowice",50.2648919,19.0237815,310000
"Poland","śląskie","Mysłowice",50.2080466,19.1660513,
"Poland","śląskie","Ruda Śląska",50.2558286,18.8555704,
"Poland","śląskie","Siemianowice Śląskie",50.3264314,19.0295714,
"Poland","śląskie","Świętochłowice",50.2964328,18.9171297,
"Poland","śląskie","Racibórz",50.0915234,18.2199165,
"Poland","śląskie","Kornowac",50.0722914,18.3139861,
"Poland","śląskie","Krzanowice",50.0194143,18.1228624,
"Poland","śląskie","Krzyżanowice",49.994364,18.2382032,
"Poland","śląskie","Kuźnia Raciborska",50.20009,18.31153,
"Poland","śląskie","Nędza",50.1522388,18.3127582,
"Poland","śląskie","Pietrowice Wielkie",50.1029786,18.0915378,
"Poland","śląskie","Rudnik",50.1560194,18.1581683,
"Poland","śląskie","Czerwionka-Leszczyny",50.1489305,18.6774678,
"Poland","śląskie","Gaszowice",50.0967077,18.4247715,
"Poland","śląskie","Jejkowice",50.1022746,18.4718486,
"Poland","śląskie","Lyski",50.1191914,18.384891,
"Poland","śląskie","Świerklany",50.0304828,18.5686935,
"Poland","śląskie","Pszów",50.0400034,18.3943993,
"Poland","śląskie","Radlin",50.0491414,18.4768769,
"Poland","śląskie","Rydułtowy",50.057879,18.4173822,
"Poland","śląskie","Wodzisław Śląski",50.003137,18.4719102,
"Poland","śląskie","Godów",49.9245461,18.4778933,
"Poland","śląskie","Gorzyce",49.9596204,18.393931,
"Poland","śląskie","Lubomia",50.0234545,18.3203635,
"Poland","śląskie","Marklowice",50.0165301,18.5192901,
"Poland","śląskie","Mszana",49.9692585,18.5272388,
"Poland","śląskie","Jastrzębie-Zdrój",49.9454207,18.6101103,
"Poland","śląskie","Rybnik",50.1021742,18.5462847,
